loop_index,last_step_ns,imu_time_ns,bmp_time_ns,epoch_time_ns,v_batt,alt_bmp_raw,bmp_temp,gyro_roll,gyro_pitch,gyro_yaw,accel_X,accel_Y,accel_Z,mag_X, mag_Y, mag_Z,roll,pitch,yaw,X,Y,Z,Xdot,Ydot,Zdot,xbee_time,xbee_time_received_ns,xbee_x,xbee_y,xbee_z,xbee_qw,xbee_qx,xbee_qy,xbee_qz,xbee_roll,xbee_pitch,xbee_yaw,gps_lat,gps_lon,gps_gpsAlt,gps_ned_x,gps_ned_y,gps_ned_z,gps_spd,gps_fix,gps_sat,gps_headingNc,gps_cog,gps_gpsVsi,gps_hdop,gps_vdop,gps_year,gps_month,gps_day,gps_hour,gps_minute,gps_second,gps_time_received_ns,X_thrt,Y_thrt,Z_thrt,roll_thrt,pitch_thrt,yaw_thrt,sp_roll_f,sp_roll,sp_pitch_f,sp_pitch,sp_yaw,sp_X,sp_Y,sp_Z,sp_Xdot,sp_Ydot,sp_Zdot,u_roll,u_pitch,u_yaw,u_X,u_Y,u_Z,mot_1,mot_2,mot_3,mot_4,dsm_con,flight_mode,rm3100_x,rm3100_y,rm3100_z,rm3100_time_ns,tIMU,tIMU_END,tSM,tXBEE,tGPS,tPNI,tNAV,tGUI,tCTR,tLOG,tNTP,ntpOffset,ntp_time_updated_ns
0,0,1.47819E+18,1.47819E+18,1.47819E+18,9.5145,226.184,28.97,0.1221,-0.1221,0.1831,0.6629,0.1244,-9.948,11.7515,-40.2399,88.2074,0.0004,0.0376,2.8796,0,0,0,0,0,0,0,0,0,0,0,0,0,0,0,0,0,0,42.2941934,-83.7105212,269.042,4285785.198,-4682620.522,-516095.788,0.014,4,10,251.565,135,0.04,0.846,1.26,21,4,23,15,24,30,1.47819E+18,0,0,0,0,0,0,0,0,0,0,0,0,0,0,0,0,0,0,0,0,0,0,0,-0.1,-0.1,-0.1,-0.1,0,0,10.8,-9.28,49.1733,1.47819E+18,1.47819E+18,0,1.47819E+18,1.47819E+18,1.47819E+18,1.47819E+18,1.47819E+18,1.47819E+18,1.47819E+18,0,0,0,1.47819E+18
0,0,1.47819E+18,1.47819E+18,1.47819E+18,9.5082,226.184,28.97,0,-0.061,0.3052,0.7012,0.1507,-9.9551,11.7515,-40.2399,88.2074,0.0004,0.0377,2.8796,0,0,0,0,0,0,0,0,0,0,0,0,0,0,0,0,0,0,42.2941934,-83.7105212,269.042,4285785.198,-4682620.522,-516095.788,0.014,4,10,254.055,135,0.04,0.846,1.26,21,4,23,15,24,30,1.47819E+18,0,0,0,0,0,0,0,0,0,0,0,0,0,0,0,0,0,0,0,0,0,0,0,-0.1,-0.1,-0.1,-0.1,0,0,10.8533,-9.3467,49.0933,1.47819E+18,1.47819E+18,1.47819E+18,1.47819E+18,1.47819E+18,1.47819E+18,1.47819E+18,1.47819E+18,1.47819E+18,1.47819E+18,1.47819E+18,0,0,1.47819E+18
0,0,1.47819E+18,1.47819E+18,1.47819E+18,9.5032,226.184,28.97,0.061,-0.061,0.3052,0.6629,0.1315,-9.967,11.7515,-40.2399,88.2074,0.0004,0.0377,2.8796,0,0,0,0,0,0,0,0,0,0,0,0,0,0,0,0,0,0,42.2941934,-83.7105212,269.042,4285785.198,-4682620.522,-516095.788,0.014,4,10,254.055,135,0.04,0.846,1.26,21,4,23,15,24,30,1.47819E+18,0,0,0,0,0,0,0,0,0,0,0,0,0,0,0,0,0,0,0,0,0,0,0,-0.1,-0.1,-0.1,-0.1,0,0,11.1867,-9.2533,48.9333,1.47819E+18,1.47819E+18,1.47819E+18,1.47819E+18,1.47819E+18,1.47819E+18,1.47819E+18,1.47819E+18,1.47819E+18,1.47819E+18,1.47819E+18,0,0,1.47819E+18
0,0,1.47819E+18,1.47819E+18,1.47819E+18,9.4983,226.184,28.97,0.061,0,0.2441,0.694,0.1292,-9.9361,9.9709,-38.4593,88.2074,0.0004,0.0378,2.8796,0,0,0,0,0,0,0,0,0,0,0,0,0,0,0,0,0,0,42.2941934,-83.7105212,269.042,4285785.198,-4682620.522,-516095.788,0.014,4,10,254.055,135,0.04,0.846,1.26,21,4,23,15,24,30,1.47819E+18,0,0,0,0,0,0,0,0,0,0,0,0,0,0,0,0,0,0,0,0,0,0,0,-0.1,-0.1,-0.1,-0.1,0,0,11.1867,-9.2533,48.9333,1.47819E+18,1.47819E+18,1.47819E+18,1.47819E+18,1.47819E+18,1.47819E+18,1.47819E+18,1.47819E+18,1.47819E+18,1.47819E+18,1.47819E+18,0,0,1.47819E+18
0,0,1.47819E+18,1.47819E+18,1.47819E+18,9.4923,226.184,28.97,0.061,0,0.2441,0.6868,0.1339,-9.929,9.9709,-38.4593,88.2074,0.0004,0.0378,2.8796,0,0,0,0,0,0,0,0,0,0,0,0,0,0,0,0,0,0,42.2941934,-83.7105212,269.042,4285785.198,-4682620.522,-516095.788,0.014,4,10,254.055,135,0.04,0.846,1.26,21,4,23,15,24,30,1.47819E+18,0,0,0,0,0,0,0,0,0,0,0,0,0,0,0,0,0,0,0,0,0,0,0,-0.1,-0.1,-0.1,-0.1,0,0,10.68,-9.1467,48.9467,1.47819E+18,1.47819E+18,1.47819E+18,1.47819E+18,1.47819E+18,1.47819E+18,1.47819E+18,1.47819E+18,1.47819E+18,1.47819E+18,1.47819E+18,0,0,1.47819E+18
0,0,1.47819E+18,1.47819E+18,1.47819E+18,9.4872,226.184,28.97,-0.061,-0.1221,0.2441,0.6964,0.1387,-9.9314,9.9709,-38.4593,88.2074,0.0004,0.0378,2.8796,0,0,0,0,0,0,0,0,0,0,0,0,0,0,0,0,0,0,42.2941934,-83.7105212,269.042,4285785.198,-4682620.522,-516095.788,0.014,4,10,254.055,135,0.04,0.846,1.26,21,4,23,15,24,30,1.47819E+18,0,0,0,0,0,0,0,0,0,0,0,0,0,0,0,0,0,0,0,0,0,0,0,-0.1,-0.1,-0.1,-0.1,0,0,10.64,-9.24,49.04,1.47819E+18,1.47819E+18,1.47819E+18,1.47819E+18,1.47819E+18,1.47819E+18,1.47819E+18,1.47819E+18,1.47819E+18,1.47819E+18,1.47819E+18,0,0,1.47819E+18
0,0,1.47819E+18,1.47819E+18,1.47819E+18,9.4829,226.184,28.97,0.1221,0,0.2441,0.6796,0.1698,-9.9646,9.9709,-38.4593,88.2074,0.0004,0.0379,2.8796,0,0,0,0,0,0,0,0,0,0,0,0,0,0,0,0,0,0,42.2941934,-83.7105212,269.042,4285785.198,-4682620.522,-516095.788,0.014,4,10,254.578,135,0.04,0.846,1.26,21,4,23,15,24,30,1.47819E+18,0,0,0,0,0,0,0,0,0,0,0,0,0,0,0,0,0,0,0,0,0,0,0,-0.1,-0.1,-0.1,-0.1,0,0,10.6267,-9.24,48.9067,1.47819E+18,1.47819E+18,1.47819E+18,1.47819E+18,1.47819E+18,1.47819E+18,1.47819E+18,1.47819E+18,1.47819E+18,1.47819E+18,1.47819E+18,0,0,1.47819E+18
0,0,1.47819E+18,1.47819E+18,1.47819E+18,9.4773,226.184,28.97,0.061,-0.1831,0.1221,0.7083,0.122,-9.9527,11.0393,-41.3082,87.8642,0.0004,0.0379,2.8796,0,0,0,0,0,0,0,0,0,0,0,0,0,0,0,0,0,0,42.2941934,-83.7105212,269.042,4285785.198,-4682620.522,-516095.788,0.014,4,10,254.578,135,0.04,0.846,1.26,21,4,23,15,24,30,1.47819E+18,0,0,0,0,0,0,0,0,0,0,0,0,0,0,0,0,0,0,0,0,0,0,0,-0.1,-0.1,-0.1,-0.1,0,0,10.6667,-9.1733,48.9333,1.47819E+18,1.47819E+18,1.47819E+18,1.47819E+18,1.47819E+18,1.47819E+18,1.47819E+18,1.47819E+18,1.47819E+18,1.47819E+18,1.47819E+18,0,0,1.47819E+18
0,0,1.47819E+18,1.47819E+18,1.47819E+18,9.471,226.184,28.97,-0.1221,-0.061,0.1221,0.7131,0.11,-9.8863,11.0393,-41.3082,87.8642,0.0004,0.0379,2.8796,0,0,0,0,0,0,0,0,0,0,0,0,0,0,0,0,0,0,42.2941934,-83.7105212,269.042,4285785.198,-4682620.522,-516095.788,0.014,4,10,254.578,135,0.04,0.846,1.26,21,4,23,15,24,30,1.47819E+18,0,0,0,0,0,0,0,0,0,0,0,0,0,0,0,0,0,0,0,0,0,0,0,-0.1,-0.1,-0.1,-0.1,0,0,10.6667,-9.1733,48.9333,1.47819E+18,1.47819E+18,1.47819E+18,1.47819E+18,1.47819E+18,1.47819E+18,1.47819E+18,1.47819E+18,1.47819E+18,1.47819E+18,1.47819E+18,0,0,1.47819E+18
0,0,1.47819E+18,1.47819E+18,1.47819E+18,9.4659,226.184,28.97,0.061,0,0.1831,0.6988,0.1124,-9.9124,11.0393,-41.3082,87.8642,0.0004,0.0379,2.8796,0,0,0,0,0,0,0,0,0,0,0,0,0,0,0,0,0,0,42.2941934,-83.7105212,269.042,4285785.198,-4682620.522,-516095.788,0.014,4,10,254.578,135,0.04,0.846,1.26,21,4,23,15,24,30,1.47819E+18,0,0,0,0,0,0,0,0,0,0,0,0,0,0,0,0,0,0,0,0,0,0,0,-0.1,-0.1,-0.1,-0.1,0,0,10.64,-9.2267,49.0133,1.47819E+18,1.47819E+18,1.47819E+18,1.47819E+18,1.47819E+18,1.47819E+18,1.47819E+18,1.47819E+18,1.47819E+18,1.47819E+18,1.47819E+18,0,0,1.47819E+18
0,0,1.47819E+18,1.47819E+18,1.47819E+18,9.4609,226.184,28.97,0.1221,0,0.3052,0.6701,0.122,-9.9717,11.0393,-41.3082,87.8642,0.0004,0.038,2.8796,0,0,0,0,0,0,0,0,0,0,0,0,0,0,0,0,0,0,42.2941934,-83.7105212,269.042,4285785.198,-4682620.522,-516095.788,0.014,4,10,254.578,135,0.04,0.846,1.26,21,4,23,15,24,30,1.47819E+18,0,0,0,0,0,0,0,0,0,0,0,0,0,0,0,0,0,0,0,0,0,0,0,-0.1,-0.1,-0.1,-0.1,0,0,10.64,-9.2667,48.9733,1.47819E+18,1.47819E+18,1.47819E+18,1.47819E+18,1.47819E+18,1.47819E+18,1.47819E+18,1.47819E+18,1.47819E+18,1.47819E+18,1.47819E+18,0,0,1.47819E+18
0,0,1.47819E+18,1.47819E+18,1.47819E+18,9.4555,226.2454,29.02,0,-0.1221,0.1221,0.6724,0.0981,-9.8934,10.149,-41.8423,87.3494,0.0004,0.038,2.8796,0,0,0,0,0,0,0,0,0,0,0,0,0,0,0,0,0,0,42.2941934,-83.7105212,269.042,4285785.198,-4682620.522,-516095.788,0.014,4,10,254.578,135,0.04,0.846,1.26,21,4,23,15,24,30,1.47819E+18,0,0,0,0,0,0,0,0,0,0,0,0,0,0,0,0,0,0,0,0,0,0,0,-0.1,-0.1,-0.1,-0.1,0,0,10.6933,-9.2,48.9467,1.47819E+18,1.47819E+18,1.47819E+18,1.47819E+18,1.47819E+18,1.47819E+18,1.47819E+18,1.47819E+18,1.47819E+18,1.47819E+18,1.47819E+18,0,0,1.47819E+18
0,0,1.47819E+18,1.47819E+18,1.47819E+18,9.4505,226.2454,29.02,0,-0.061,0.1831,0.6964,0.1411,-9.929,10.149,-41.8423,87.3494,0.0004,0.038,2.8796,0,0,0,0,0,0,0,0,0,0,0,0,0,0,0,0,0,0,42.2941934,-83.7105212,269.042,4285785.198,-4682620.522,-516095.788,0.014,4,10,255.466,135,0.04,0.846,1.26,21,4,23,15,24,30,1.47819E+18,0,0,0,0,0,0,0,0,0,0,0,0,0,0,0,0,0,0,0,0,0,0,0,-0.1,-0.1,-0.1,-0.1,0,0,10.6933,-9.2,48.9467,1.47819E+18,1.47819E+18,1.47819E+18,1.47819E+18,1.47819E+18,1.47819E+18,1.47819E+18,1.47819E+18,1.47819E+18,1.47819E+18,1.47819E+18,0,0,1.47819E+18
0,0,1.47819E+18,1.47819E+18,1.47819E+18,9.4442,226.2454,29.02,0.061,0,0.1831,0.7012,0.1459,-9.9907,10.149,-41.8423,87.3494,0.0004,0.038,2.8796,0,0,0,0,0,0,0,0,0,0,0,0,0,0,0,0,0,0,42.2941934,-83.7105212,269.042,4285785.198,-4682620.522,-516095.788,0.014,4,10,255.466,135,0.04,0.846,1.26,21,4,23,15,24,30,1.47819E+18,0,0,0,0,0,0,0,0,0,0,0,0,0,0,0,0,0,0,0,0,0,0,0,-0.1,-0.1,-0.1,-0.1,0,0,10.6,-9.28,49.0533,1.47819E+18,1.47819E+18,1.47819E+18,1.47819E+18,1.47819E+18,1.47819E+18,1.47819E+18,1.47819E+18,1.47819E+18,1.47819E+18,1.47819E+18,0,0,1.47819E+18
0,0,1.47819E+18,1.47819E+18,1.47819E+18,9.4384,226.2454,29.02,0.1221,0,0.1831,0.6988,0.1339,-9.9575,10.149,-41.8423,87.3494,0.0004,0.0381,2.8796,0,0,0,0,0,0,0,0,0,0,0,0,0,0,0,0,0,0,42.2941934,-83.7105212,269.042,4285785.198,-4682620.522,-516095.788,0.014,4,10,255.466,135,0.04,0.846,1.26,21,4,23,15,24,30,1.47819E+18,0,0,0,0,0,0,0,0,0,0,0,0,0,0,0,0,0,0,0,0,0,0,0,-0.1,-0.1,-0.1,-0.1,0,0,10.6533,-9.2667,49,1.47819E+18,1.47819E+18,1.47819E+18,1.47819E+18,1.47819E+18,1.47819E+18,1.47819E+18,1.47819E+18,1.47819E+18,1.47819E+18,1.47819E+18,0,0,1.47819E+18
0,0,1.47819E+18,1.47819E+18,1.47819E+18,9.4328,226.2454,29.02,0.2441,0,0.3052,0.6796,0.1339,-9.9741,11.7515,-39.5277,86.4913,0.0004,0.0381,2.8796,0,0,0,0,0,0,0,0,0,0,0,0,0,0,0,0,0,0,42.2941934,-83.7105212,269.042,4285785.198,-4682620.522,-516095.788,0.014,4,10,255.466,135,0.04,0.846,1.26,21,4,23,15,24,30,1.47819E+18,0,0,0,0,0,0,0,0,0,0,0,0,0,0,0,0,0,0,0,0,0,0,0,-0.1,-0.1,-0.1,-0.1,0,0,12.5333,-9.3067,48.96,1.47819E+18,1.47819E+18,1.47819E+18,1.47819E+18,1.47819E+18,1.47819E+18,1.47819E+18,1.47819E+18,1.47819E+18,1.47819E+18,1.47819E+18,0,0,1.47819E+18
0,0,1.47819E+18,1.47819E+18,1.47819E+18,9.4273,226.2454,29.02,0.1831,-0.1221,0.1831,0.7012,0.1435,-9.948,11.7515,-39.5277,86.4913,0.0004,0.0381,2.8796,0,0,0,0,0,0,0,0,0,0,0,0,0,0,0,0,0,0,42.2941934,-83.7105212,269.042,4285785.198,-4682620.522,-516095.788,0.014,4,10,255.466,135,0.04,0.846,1.26,21,4,23,15,24,30,1.47819E+18,0,0,0,0,0,0,0,0,0,0,0,0,0,0,0,0,0,0,0,0,0,0,0,-0.1,-0.1,-0.1,-0.1,0,0,12.5333,-9.3067,48.96,1.47819E+18,1.47819E+18,1.47819E+18,1.47819E+18,1.47819E+18,1.47819E+18,1.47819E+18,1.47819E+18,1.47819E+18,1.47819E+18,1.47819E+18,0,0,1.47819E+18
0,0,1.47819E+18,1.47819E+18,1.47819E+18,9.4215,226.2454,29.02,0.061,0,0.2441,0.6629,0.1483,-9.9622,11.7515,-39.5277,86.4913,0.0004,0.0382,2.8796,0,0,0,0,0,0,0,0,0,0,0,0,0,0,0,0,0,0,42.2941934,-83.7105212,269.042,4285785.198,-4682620.522,-516095.788,0.014,4,10,255.466,135,0.04,0.846,1.26,21,4,23,15,24,30,1.47819E+18,0,0,0,0,0,0,0,0,0,0,0,0,0,0,0,0,0,0,0,0,0,0,0,-0.1,-0.1,-0.1,-0.1,0,0,10.64,-9.24,49.0533,1.47819E+18,1.47819E+18,1.47819E+18,1.47819E+18,1.47819E+18,1.47819E+18,1.47819E+18,1.47819E+18,1.47819E+18,1.47819E+18,1.47819E+18,0,0,1.47819E+18
0,0,1.47819E+18,1.47819E+18,1.47819E+18,9.4156,226.2454,29.02,0.1831,0,0.1221,0.6677,0.122,-9.9385,11.7515,-39.5277,86.4913,0.0004,0.0382,2.8795,0,0,0,0,0,0,0,0,0,0,0,0,0,0,0,0,0,0,42.2941934,-83.7105212,269.042,4285785.198,-4682620.522,-516095.788,0.014,4,10,255.466,135,0.04,0.846,1.26,21,4,23,15,24,30,1.47819E+18,0,0,0,0,0,0,0,0,0,0,0,0,0,0,0,0,0,0,0,0,0,0,0,-0.1,-0.1,-0.1,-0.1,0,0,10.4933,-9.2933,49.0267,1.47819E+18,1.47819E+18,1.47819E+18,1.47819E+18,1.47819E+18,1.47819E+18,1.47819E+18,1.47819E+18,1.47819E+18,1.47819E+18,1.47819E+18,0,0,1.47819E+18
0,0,1.47819E+18,1.47819E+18,1.47819E+18,9.4101,226.2454,29.02,0.061,0.061,0.1221,0.7251,0.1196,-9.9527,9.2587,-39.5277,88.8939,0.0004,0.0382,2.8795,0,0,0,0,0,0,0,0,0,0,0,0,0,0,0,0,0,0,42.2941934,-83.7105212,269.042,4285785.198,-4682620.522,-516095.788,0.014,4,10,249.677,135,0.04,0.846,1.26,21,4,23,15,24,30,1.47819E+18,0,0,0,0,0,0,0,0,0,0,0,0,0,0,0,0,0,0,0,0,0,0,0,-0.1,-0.1,-0.1,-0.1,0,0,10.6667,-9.24,48.96,1.47819E+18,1.47819E+18,1.47819E+18,1.47819E+18,1.47819E+18,1.47819E+18,1.47819E+18,1.47819E+18,1.47819E+18,1.47819E+18,1.47819E+18,0,0,1.47819E+18
0,0,1.47819E+18,1.47819E+18,1.47819E+18,9.4106,226.2454,29.02,0.061,0,0.1221,0.6964,0.1172,-9.9432,9.2587,-39.5277,88.8939,0.0004,0.0383,2.8795,0,0,0,0,0,0,0,0,0,0,0,0,0,0,0,0,0,0,42.2941934,-83.7105212,269.042,4285785.198,-4682620.522,-516095.788,0.014,4,10,249.677,135,0.04,0.846,1.26,21,4,23,15,24,30,1.47819E+18,0,0,0,0,0,0,0,0,0,0,0,0,0,0,0,0,0,0,0,0,0,0,0,-0.1,-0.1,-0.1,-0.1,0,0,10.6667,-9.24,48.96,1.47819E+18,1.47819E+18,1.47819E+18,1.47819E+18,1.47819E+18,1.47819E+18,1.47819E+18,1.47819E+18,1.47819E+18,1.47819E+18,1.47819E+18,0,0,1.47819E+18
0,0,1.47819E+18,1.47819E+18,1.47819E+18,9.4111,226.2594,29.02,0,0,0.1221,0.7203,0.1292,-9.9029,9.2587,-39.5277,88.8939,0.0004,0.0383,2.8795,0,0,0,0,0,0,0,0,0,0,0,0,0,0,0,0,0,0,42.2941934,-83.7105212,269.042,4285785.198,-4682620.522,-516095.788,0.014,4,10,249.677,135,0.04,0.846,1.26,21,4,23,15,24,30,1.47819E+18,0,0,0,0,0,0,0,0,0,0,0,0,0,0,0,0,0,0,0,0,0,0,0,-0.1,-0.1,-0.1,-0.1,0,0,10.6533,-9.2133,49.0133,1.47819E+18,1.47819E+18,1.47819E+18,1.47819E+18,1.47819E+18,1.47819E+18,1.47819E+18,1.47819E+18,1.47819E+18,1.47819E+18,1.47819E+18,0,0,1.47819E+18
0,0,1.47819E+18,1.47819E+18,1.47819E+18,9.4108,226.2594,29.02,0,0,0.1831,0.7371,0.1292,-9.9598,9.2587,-39.5277,88.8939,0.0004,0.0383,2.8795,0,0,0,0,0,0,0,0,0,0,0,0,0,0,0,0,0,0,42.2941934,-83.7105212,269.042,4285785.198,-4682620.522,-516095.788,0.014,4,10,249.677,135,0.04,0.846,1.26,21,4,23,15,24,30,1.47819E+18,0,0,0,0,0,0,0,0,0,0,0,0,0,0,0,0,0,0,0,0,0,0,0,-0.1,-0.1,-0.1,-0.1,0,0,10.64,-9.2,49.0133,1.47819E+18,1.47819E+18,1.47819E+18,1.47819E+18,1.47819E+18,1.47819E+18,1.47819E+18,1.47819E+18,1.47819E+18,1.47819E+18,1.47819E+18,0,0,1.47819E+18
0,0,1.47819E+18,1.47819E+18,1.47819E+18,9.4108,226.2594,29.02,0,0,0.2441,0.7107,0.1028,-9.9005,10.6832,-40.9521,87.1778,0.0004,0.0384,2.8795,0,0,0,0,0,0,0,0,0,0,0,0,0,0,0,0,0,0,42.2941934,-83.7105212,269.042,4285785.198,-4682620.522,-516095.788,0.014,4,10,249.677,135,0.04,0.846,1.26,21,4,23,15,24,30,1.47819E+18,0,0,0,0,0,0,0,0,0,0,0,0,0,0,0,0,0,0,0,0,0,0,0,-0.1,-0.1,-0.1,-0.1,0,0,10.6533,-9.2533,48.96,1.47819E+18,1.47819E+18,1.47819E+18,1.47819E+18,1.47819E+18,1.47819E+18,1.47819E+18,1.47819E+18,1.47819E+18,1.47819E+18,1.47819E+18,0,0,1.47819E+18
0,0,1.47819E+18,1.47819E+18,1.47819E+18,9.4113,226.2594,29.02,0,-0.061,0.2441,0.6772,0.11,-9.9764,10.6832,-40.9521,87.1778,0.0004,0.0384,2.8795,0,0,0,0,0,0,0,0,0,0,0,0,0,0,0,0,0,0,42.2941934,-83.7105212,269.042,4285785.198,-4682620.522,-516095.788,0.014,4,10,249.677,135,0.04,0.846,1.26,21,4,23,15,24,30,1.47819E+18,0,0,0,0,0,0,0,0,0,0,0,0,0,0,0,0,0,0,0,0,0,0,0,-0.1,-0.1,-0.1,-0.1,0,0,10.6533,-9.1733,49.0267,1.47819E+18,1.47819E+18,1.47819E+18,1.47819E+18,1.47819E+18,1.47819E+18,1.47819E+18,1.47819E+18,1.47819E+18,1.47819E+18,1.47819E+18,0,0,1.47819E+18
0,0,1.47819E+18,1.47819E+18,1.47819E+18,9.4111,226.2594,29.02,0.061,0,0.3052,0.6677,0.1411,-9.9432,10.6832,-40.9521,87.1778,0.0004,0.0384,2.8795,0,0,0,0,0,0,0,0,0,0,0,0,0,0,0,0,0,0,42.2941934,-83.7105212,269.042,4285785.198,-4682620.522,-516095.788,0.014,4,10,250.201,135,0.04,0.846,1.26,21,4,23,15,24,30,1.47819E+18,0,0,0,0,0,0,0,0,0,0,0,0,0,0,0,0,0,0,0,0,0,0,0,-0.1,-0.1,-0.1,-0.1,0,0,10.6533,-9.1733,49.0267,1.47819E+18,1.47819E+18,1.47819E+18,1.47819E+18,1.47819E+18,1.47819E+18,1.47819E+18,1.47819E+18,1.47819E+18,1.47819E+18,1.47819E+18,0,0,1.47819E+18
0,0,1.47819E+18,1.47819E+18,1.47819E+18,9.4089,226.2594,29.02,0,-0.061,0.2441,0.7083,0.1268,-9.9409,10.6832,-40.9521,87.1778,0.0004,0.0384,2.8795,0,0,0,0,0,0,0,0,0,0,0,0,0,0,0,0,0,0,42.2941934,-83.7105212,269.042,4285785.198,-4682620.522,-516095.788,0.014,4,10,250.201,135,0.04,0.846,1.26,21,4,23,15,24,30,1.47819E+18,0,0,0,0,0,0,0,0,0,0,0,0,0,0,0,0,0,0,0,0,0,0,0,-0.1,-0.1,-0.1,-0.1,0,0,10.64,-9.2,48.96,1.47819E+18,1.47819E+18,1.47819E+18,1.47819E+18,1.47819E+18,1.47819E+18,1.47819E+18,1.47819E+18,1.47819E+18,1.47819E+18,1.47819E+18,0,0,1.47819E+18
0,0,1.47819E+18,1.47819E+18,1.47819E+18,9.4084,226.2594,29.02,0.061,-0.061,0.2441,0.6772,0.1579,-9.9385,10.327,-40.596,88.2074,0.0004,0.0385,2.8795,0,0,0,0,0,0,0,0,0,0,0,0,0,0,0,0,0,0,42.2941934,-83.7105212,269.042,4285785.198,-4682620.522,-516095.788,0.014,4,10,250.201,135,0.04,0.846,1.26,21,4,23,15,24,30,1.47819E+18,0,0,0,0,0,0,0,0,0,0,0,0,0,0,0,0,0,0,0,0,0,0,0,-0.1,-0.1,-0.1,-0.1,0,0,11.7333,-9.2533,49.0533,1.47819E+18,1.47819E+18,1.47819E+18,1.47819E+18,1.47819E+18,1.47819E+18,1.47819E+18,1.47819E+18,1.47819E+18,1.47819E+18,1.47819E+18,0,0,1.47819E+18
0,0,1.47819E+18,1.47819E+18,1.47819E+18,9.4096,226.2594,29.02,-0.061,-0.2441,0.3052,0.6868,0.122,-9.9741,10.327,-40.596,88.2074,0.0004,0.0385,2.8795,0,0,0,0,0,0,0,0,0,0,0,0,0,0,0,0,0,0,42.2941934,-83.7105212,269.042,4285785.198,-4682620.522,-516095.788,0.014,4,10,250.201,135,0.04,0.846,1.26,21,4,23,15,24,30,1.47819E+18,0,0,0,0,0,0,0,0,0,0,0,0,0,0,0,0,0,0,0,0,0,0,0,-0.1,-0.1,-0.1,-0.1,0,0,10.6267,-9.2133,49,1.47819E+18,1.47819E+18,1.47819E+18,1.47819E+18,1.47819E+18,1.47819E+18,1.47819E+18,1.47819E+18,1.47819E+18,1.47819E+18,1.47819E+18,0,0,1.47819E+18
0,0,1.47819E+18,1.47819E+18,1.47819E+18,9.4098,226.2594,29.02,0,0,0.2441,0.682,0.1387,-9.9859,10.327,-40.596,88.2074,0.0004,0.0385,2.8795,0,0,0,0,0,0,0,0,0,0,0,0,0,0,0,0,0,0,42.2941934,-83.7105212,269.042,4285785.198,-4682620.522,-516095.788,0.014,4,10,250.201,135,0.04,0.846,1.26,21,4,23,15,24,30,1.47819E+18,0,0,0,0,0,0,0,0,0,0,0,0,0,0,0,0,0,0,0,0,0,0,0,-0.1,-0.1,-0.1,-0.1,0,0,10.6267,-9.2133,49,1.47819E+18,1.47819E+18,1.47819E+18,1.47819E+18,1.47819E+18,1.47819E+18,1.47819E+18,1.47819E+18,1.47819E+18,1.47819E+18,1.47819E+18,0,0,1.47819E+18
0,0,1.47819E+18,1.47819E+18,1.47819E+18,9.4094,226.2594,29.02,-0.061,-0.1221,0.1831,0.682,0.1268,-9.8792,10.327,-40.596,88.2074,0.0003,0.0385,2.8795,0,0,0,0,0,0,0,0,0,0,0,0,0,0,0,0,0,0,42.2941934,-83.7105212,269.042,4285785.198,-4682620.522,-516095.788,0.014,4,10,250.201,135,0.04,0.846,1.26,21,4,23,15,24,30,1.47819E+18,0,0,0,0,0,0,0,0,0,0,0,0,0,0,0,0,0,0,0,0,0,0,0,-0.1,-0.1,-0.1,-0.1,0,0,10.6533,-9.1333,49.0133,1.47819E+18,1.47819E+18,1.47819E+18,1.47819E+18,1.47819E+18,1.47819E+18,1.47819E+18,1.47819E+18,1.47819E+18,1.47819E+18,1.47819E+18,0,0,1.47819E+18
0,0,1.47819E+18,1.47819E+18,1.47819E+18,9.4101,226.2594,29.02,0,-0.1221,0.1831,0.6581,0.165,-9.9598,9.7929,-40.0618,89.7519,0.0003,0.0386,2.8795,0,0,0,0,0,0,0,0,0,0,0,0,0,0,0,0,0,0,42.2941934,-83.7105212,269.042,4285785.198,-4682620.522,-516095.788,0.014,4,10,250.201,135,0.04,0.846,1.26,21,4,23,15,24,30,1.47819E+18,0,0,0,0,0,0,0,0,0,0,0,0,0,0,0,0,0,0,0,0,0,0,0,-0.1,-0.1,-0.1,-0.1,0,0,10.5867,-9.2133,49.0267,1.47819E+18,1.47819E+18,1.47819E+18,1.47819E+18,1.47819E+18,1.47819E+18,1.47819E+18,1.47819E+18,1.47819E+18,1.47819E+18,1.47819E+18,0,0,1.47819E+18
0,0,1.47819E+18,1.47819E+18,1.47819E+18,9.4098,226.2594,29.02,-0.1221,0.061,0.3662,0.6892,0.1435,-9.9266,9.7929,-40.0618,89.7519,0.0003,0.0386,2.8795,0,0,0,0,0,0,0,0,0,0,0,0,0,0,0,0,0,0,42.2941934,-83.7105212,269.042,4285785.198,-4682620.522,-516095.788,0.014,4,10,258.311,135,0.04,0.846,1.26,21,4,23,15,24,30,1.47819E+18,0,0,0,0,0,0,0,0,0,0,0,0,0,0,0,0,0,0,0,0,0,0,0,-0.1,-0.1,-0.1,-0.1,0,0,10.6533,-9.24,48.96,1.47819E+18,1.47819E+18,1.47819E+18,1.47819E+18,1.47819E+18,1.47819E+18,1.47819E+18,1.47819E+18,1.47819E+18,1.47819E+18,1.47819E+18,0,0,1.47819E+18
0,0,1.47819E+18,1.47819E+18,1.47819E+18,9.4111,226.2594,29.02,0.1221,-0.061,0.3052,0.7083,0.1268,-9.9147,9.7929,-40.0618,89.7519,0.0003,0.0386,2.8795,0,0,0,0,0,0,0,0,0,0,0,0,0,0,0,0,0,0,42.2941934,-83.7105212,269.042,4285785.198,-4682620.522,-516095.788,0.014,4,10,258.311,135,0.04,0.846,1.26,21,4,23,15,24,30,1.47819E+18,0,0,0,0,0,0,0,0,0,0,0,0,0,0,0,0,0,0,0,0,0,0,0,-0.1,-0.1,-0.1,-0.1,0,0,10.6533,-9.24,48.96,1.47819E+18,1.47819E+18,1.47819E+18,1.47819E+18,1.47819E+18,1.47819E+18,1.47819E+18,1.47819E+18,1.47819E+18,1.47819E+18,1.47819E+18,0,0,1.47819E+18
0,0,1.47819E+18,1.47819E+18,1.47819E+18,9.4048,226.2594,29.02,0,0,0.2441,0.7036,0.1411,-9.9195,9.7929,-40.0618,89.7519,0.0003,0.0387,2.8795,0,0,0,0,0,0,0,0,0,0,0,0,0,0,0,0,0,0,42.2941934,-83.7105212,269.042,4285785.198,-4682620.522,-516095.788,0.014,4,10,258.311,135,0.04,0.846,1.26,21,4,23,15,24,30,1.47819E+18,0,0,0,0,0,0,0,0,0,0,0,0,0,0,0,0,0,0,0,0,0,0,0,-0.1,-0.1,-0.1,-0.1,0,0,10.6933,-9.1333,49.0133,1.47819E+18,1.47819E+18,1.47819E+18,1.47819E+18,1.47819E+18,1.47819E+18,1.47819E+18,1.47819E+18,1.47819E+18,1.47819E+18,1.47819E+18,0,0,1.47819E+18
0,0,1.47819E+18,1.47819E+18,1.47819E+18,9.4028,226.2594,29.02,0.061,0,0.2441,0.6677,0.1339,-9.9575,10.327,-38.8154,87.1778,0.0003,0.0387,2.8795,0,0,0,0,0,0,0,0,0,0,0,0,0,0,0,0,0,0,42.2941935,-83.7105211,269.078,0.011,0.008,-0.036,0.014,4,10,258.311,135,0.04,0.846,1.26,21,4,23,15,24,30,1.47819E+18,0,0,0,0,0,0,0,0,0,0,0,0,0,0,0,0,0,0,0,0,0,0,0,-0.1,-0.1,-0.1,-0.1,0,0,10.6267,-9.2533,51.5333,1.47819E+18,1.47819E+18,1.47819E+18,1.47819E+18,1.47819E+18,1.47819E+18,1.47819E+18,1.47819E+18,1.47819E+18,1.47819E+18,1.47819E+18,0,0,1.47819E+18
0,0,1.47819E+18,1.47819E+18,1.47819E+18,9.4028,226.2594,29.02,0,0,0.1831,0.7083,0.1363,-9.9361,10.327,-38.8154,87.1778,0.0003,0.0387,2.8795,0,0,0,0,0,0,0,0,0,0,0,0,0,0,0,0,0,0,42.2941935,-83.7105211,269.078,0.011,0.008,-0.036,0.014,4,10,258.311,135,0.04,0.846,1.26,21,4,23,15,24,30,1.47819E+18,0,0,0,0,0,0,0,0,0,0,0,0,0,0,0,0,0,0,0,0,0,0,0,-0.1,-0.1,-0.1,-0.1,0,0,10.6,-9.36,49,1.47819E+18,1.47819E+18,1.47819E+18,1.47819E+18,1.47819E+18,1.47819E+18,1.47819E+18,1.47819E+18,1.47819E+18,1.47819E+18,1.47819E+18,0,0,1.47819E+18
0,0,1.47819E+18,1.47819E+18,1.47819E+18,9.4036,226.2594,29.02,0.061,-0.061,0,0.682,0.1387,-9.9361,10.327,-38.8154,87.1778,0.0003,0.0387,2.8795,0,0,0,0,0,0,0,0,0,0,0,0,0,0,0,0,0,0,42.2941935,-83.7105211,269.078,0.011,0.008,-0.036,0.014,4,10,258.311,135,0.04,0.846,1.26,21,4,23,15,24,30,1.47819E+18,0,0,0,0,0,0,0,0,0,0,0,0,0,0,0,0,0,0,0,0,0,0,0,-0.1,-0.1,-0.1,-0.1,0,0,10.6,-9.36,49,1.47819E+18,1.47819E+18,1.47819E+18,1.47819E+18,1.47819E+18,1.47819E+18,1.47819E+18,1.47819E+18,1.47819E+18,1.47819E+18,1.47819E+18,0,0,1.47819E+18
0,0,1.47819E+18,1.47819E+18,1.47819E+18,9.4038,226.2594,29.02,-0.061,-0.1831,0.1831,0.6964,0.1387,-9.9314,10.327,-38.8154,87.1778,0.0003,0.0388,2.8795,0,0,0,0,0,0,0,0,0,0,0,0,0,0,0,0,0,0,42.2941935,-83.7105211,269.078,0.011,0.008,-0.036,0.014,4,10,251.565,135,0.04,0.846,1.26,21,4,23,15,24,30,1.47819E+18,0,0,0,0,0,0,0,0,0,0,0,0,0,0,0,0,0,0,0,0,0,0,0,-0.1,-0.1,-0.1,-0.1,0,0,10.6933,-9.1867,49.04,1.47819E+18,1.47819E+18,1.47819E+18,1.47819E+18,1.47819E+18,1.47819E+18,1.47819E+18,1.47819E+18,1.47819E+18,1.47819E+18,1.47819E+18,0,0,1.47819E+18
0,0,1.47819E+18,1.47819E+18,1.47819E+18,9.404,226.2594,29.02,0.061,0,0.1221,0.6964,0.1244,-9.9954,10.327,-40.596,86.8346,0.0003,0.0388,2.8795,0,0,0,0,0,0,0,0,0,0,0,0,0,0,0,0,0,0,42.2941935,-83.7105211,269.078,0.011,0.008,-0.036,0.014,4,10,251.565,135,0.04,0.846,1.26,21,4,23,15,24,30,1.47819E+18,0,0,0,0,0,0,0,0,0,0,0,0,0,0,0,0,0,0,0,0,0,0,0,-0.1,-0.1,-0.1,-0.1,0,0,10.64,-9.2533,49.1067,1.47819E+18,1.47819E+18,1.47819E+18,1.47819E+18,1.47819E+18,1.47819E+18,1.47819E+18,1.47819E+18,1.47819E+18,1.47819E+18,1.47819E+18,0,0,1.47819E+18
0,0,1.47819E+18,1.47819E+18,1.47819E+18,9.4036,226.2594,29.02,0,0,0.1221,0.6677,0.1602,-9.9456,10.327,-40.596,86.8346,0.0003,0.0388,2.8795,0,0,0,0,0,0,0,0,0,0,0,0,0,0,0,0,0,0,42.2941935,-83.7105211,269.078,0.011,0.008,-0.036,0.014,4,10,251.565,135,0.04,0.846,1.26,21,4,23,15,24,30,1.47819E+18,0,0,0,0,0,0,0,0,0,0,0,0,0,0,0,0,0,0,0,0,0,0,0,-0.1,-0.1,-0.1,-0.1,0,0,10.7067,-9.28,48.9733,1.47819E+18,1.47819E+18,1.47819E+18,1.47819E+18,1.47819E+18,1.47819E+18,1.47819E+18,1.47819E+18,1.47819E+18,1.47819E+18,1.47819E+18,0,0,1.47819E+18
0,0,1.47819E+18,1.47819E+18,1.47819E+18,9.4031,226.2594,29.02,0.061,0,0.1831,0.7012,0.1005,-9.9551,10.327,-40.596,86.8346,0.0003,0.0388,2.8795,0,0,0,0,0,0,0,0,0,0,0,0,0,0,0,0,0,0,42.2941935,-83.7105211,269.078,0.011,0.008,-0.036,0.014,4,10,251.565,135,0.04,0.846,1.26,21,4,23,15,24,30,1.47819E+18,0,0,0,0,0,0,0,0,0,0,0,0,0,0,0,0,0,0,0,0,0,0,0,-0.1,-0.1,-0.1,-0.1,0,0,10.6933,-9.24,49.04,1.47819E+18,1.47819E+18,1.47819E+18,1.47819E+18,1.47819E+18,1.47819E+18,1.47819E+18,1.47819E+18,1.47819E+18,1.47819E+18,1.47819E+18,0,0,1.47819E+18
0,0,1.47819E+18,1.47819E+18,1.47819E+18,9.4014,226.2594,29.02,-0.1221,-0.061,0.3052,0.6844,0.1387,-9.9147,10.327,-40.596,86.8346,0.0003,0.0389,2.8795,0,0,0,0,0,0,0,0,0,0,0,0,0,0,0,0,0,0,42.2941935,-83.7105211,269.078,0.011,0.008,-0.036,0.014,4,10,251.565,135,0.04,0.846,1.26,21,4,23,15,24,30,1.47819E+18,0,0,0,0,0,0,0,0,0,0,0,0,0,0,0,0,0,0,0,0,0,0,0,-0.1,-0.1,-0.1,-0.1,0,0,10.6933,-9.24,49.04,1.47819E+18,1.47819E+18,1.47819E+18,1.47819E+18,1.47819E+18,1.47819E+18,1.47819E+18,1.47819E+18,1.47819E+18,1.47819E+18,1.47819E+18,0,0,1.47819E+18
0,0,1.47819E+18,1.47819E+18,1.47819E+18,9.4002,226.2594,29.02,0,0,0.3662,0.6796,0.1268,-9.929,10.5051,-40.0618,88.0358,0.0003,0.0389,2.8795,0,0,0,0,0,0,0,0,0,0,0,0,0,0,0,0,0,0,42.2941935,-83.7105211,269.078,0.011,0.008,-0.036,0.014,4,10,251.565,135,0.04,0.846,1.26,21,4,23,15,24,30,1.47819E+18,0,0,0,0,0,0,0,0,0,0,0,0,0,0,0,0,0,0,0,0,0,0,0,-0.1,-0.1,-0.1,-0.1,0,0,10.6533,-9.3067,49.2,1.47819E+18,1.47819E+18,1.47819E+18,1.47819E+18,1.47819E+18,1.47819E+18,1.47819E+18,1.47819E+18,1.47819E+18,1.47819E+18,1.47819E+18,0,0,1.47819E+18
0,0,1.47819E+18,1.47819E+18,1.47819E+18,9.3997,226.2594,29.02,-0.061,-0.2441,0.1831,0.6892,0.11,-9.9646,10.5051,-40.0618,88.0358,0.0003,0.0389,2.8795,0,0,0,0,0,0,0,0,0,0,0,0,0,0,0,0,0,0,42.2941935,-83.7105211,269.078,0.011,0.008,-0.036,0.014,4,10,251.565,135,0.04,0.846,1.26,21,4,23,15,24,30,1.47819E+18,0,0,0,0,0,0,0,0,0,0,0,0,0,0,0,0,0,0,0,0,0,0,0,-0.1,-0.1,-0.1,-0.1,0,0,10.72,-9.3333,49.04,1.47819E+18,1.47819E+18,1.47819E+18,1.47819E+18,1.47819E+18,1.47819E+18,1.47819E+18,1.47819E+18,1.47819E+18,1.47819E+18,1.47819E+18,0,0,1.47819E+18
0,0,1.47819E+18,1.47819E+18,1.47819E+18,9.3982,226.2594,29.02,-0.061,-0.1221,0.2441,0.6748,0.1746,-9.9717,10.5051,-40.0618,88.0358,0.0003,0.0389,2.8795,0,0,0,0,0,0,0,0,0,0,0,0,0,0,0,0,0,0,42.2941935,-83.7105211,269.078,0.011,0.008,-0.036,0.014,4,10,252.759,135,0.04,0.846,1.26,21,4,23,15,24,30,1.47819E+18,0,0,0,0,0,0,0,0,0,0,0,0,0,0,0,0,0,0,0,0,0,0,0,-0.1,-0.1,-0.1,-0.1,0,0,10.7333,-9.28,49.1467,1.47819E+18,1.47819E+18,1.47819E+18,1.47819E+18,1.47819E+18,1.47819E+18,1.47819E+18,1.47819E+18,1.47819E+18,1.47819E+18,1.47819E+18,0,0,1.47819E+18
0,0,1.47819E+18,1.47819E+18,1.47819E+18,9.3987,226.2594,29.02,0,0,0.1221,0.7036,0.1292,-9.9171,10.5051,-40.0618,88.0358,0.0003,0.039,2.8795,0,0,0,0,0,0,0,0,0,0,0,0,0,0,0,0,0,0,42.2941935,-83.7105211,269.078,0.011,0.008,-0.036,0.014,4,10,252.759,135,0.04,0.846,1.26,21,4,23,15,24,30,1.47819E+18,0,0,0,0,0,0,0,0,0,0,0,0,0,0,0,0,0,0,0,0,0,0,0,-0.1,-0.1,-0.1,-0.1,0,0,10.7333,-9.28,49.1467,1.47819E+18,1.47819E+18,1.47819E+18,1.47819E+18,1.47819E+18,1.47819E+18,1.47819E+18,1.47819E+18,1.47819E+18,1.47819E+18,1.47819E+18,0,0,1.47819E+18
0,0,1.47819E+18,1.47819E+18,1.47819E+18,9.3992,226.2594,29.02,0,-0.1221,0.1221,0.6868,0.1698,-9.948,9.9709,-39.8838,89.2371,0.0003,0.039,2.8794,0,0,0,0,0,0,0,0,0,0,0,0,0,0,0,0,0,0,42.2941935,-83.7105211,269.078,0.011,0.008,-0.036,0.014,4,10,252.759,135,0.04,0.846,1.26,21,4,23,15,24,30,1.47819E+18,0,0,0,0,0,0,0,0,0,0,0,0,0,0,0,0,0,0,0,0,0,0,0,-0.1,-0.1,-0.1,-0.1,0,0,10.6933,-9.28,49.1067,1.47819E+18,1.47819E+18,1.47819E+18,1.47819E+18,1.47819E+18,1.47819E+18,1.47819E+18,1.47819E+18,1.47819E+18,1.47819E+18,1.47819E+18,0,0,1.47819E+18
0,0,1.47819E+18,1.47819E+18,1.47819E+18,9.399,226.2594,29.02,0.1221,0,0.3662,0.6844,0.0981,-9.9005,9.9709,-39.8838,89.2371,0.0003,0.039,2.8795,0,0,0,0,0,0,0,0,0,0,0,0,0,0,0,0,0,0,42.2941935,-83.7105211,269.078,0.011,0.008,-0.036,0.014,4,10,252.759,135,0.04,0.846,1.26,21,4,23,15,24,30,1.47819E+18,0,0,0,0,0,0,0,0,0,0,0,0,0,0,0,0,0,0,0,0,0,0,0,-0.1,-0.1,-0.1,-0.1,0,0,10.68,-9.3067,49.0133,1.47819E+18,1.47819E+18,1.47819E+18,1.47819E+18,1.47819E+18,1.47819E+18,1.47819E+18,1.47819E+18,1.47819E+18,1.47819E+18,1.47819E+18,0,0,1.47819E+18
0,0,1.47819E+18,1.47819E+18,1.47819E+18,9.3985,226.2594,29.02,0.1221,0,0.3662,0.7036,0.1579,-9.9337,9.9709,-39.8838,89.2371,0.0003,0.0391,2.8795,0,0,0,0,0,0,0,0,0,0,0,0,0,0,0,0,0,0,42.2941935,-83.7105211,269.078,0.011,0.008,-0.036,0.014,4,10,252.759,135,0.04,0.846,1.26,21,4,23,15,24,30,1.47819E+18,0,0,0,0,0,0,0,0,0,0,0,0,0,0,0,0,0,0,0,0,0,0,0,-0.1,-0.1,-0.1,-0.1,0,0,10.6933,-9.2533,49.0667,1.47819E+18,1.47819E+18,1.47819E+18,1.47819E+18,1.47819E+18,1.47819E+18,1.47819E+18,1.47819E+18,1.47819E+18,1.47819E+18,1.47819E+18,0,0,1.47819E+18
0,0,1.47819E+18,1.47819E+18,1.47819E+18,9.3985,226.2594,29.02,0.061,0,0.3662,0.7203,0.1411,-9.9195,9.9709,-39.8838,89.2371,0.0003,0.0391,2.8795,0,0,0,0,0,0,0,0,0,0,0,0,0,0,0,0,0,0,42.2941935,-83.7105211,269.078,0.011,0.008,-0.036,0.014,4,10,252.759,135,0.04,0.846,1.26,21,4,23,15,24,30,1.47819E+18,0,0,0,0,0,0,0,0,0,0,0,0,0,0,0,0,0,0,0,0,0,0,0,-0.1,-0.1,-0.1,-0.1,0,0,10.6933,-9.2533,49.0667,1.47819E+18,1.47819E+18,1.47819E+18,1.47819E+18,1.47819E+18,1.47819E+18,1.47819E+18,1.47819E+18,1.47819E+18,1.47819E+18,1.47819E+18,0,0,1.47819E+18
0,0,1.47819E+18,1.47819E+18,1.47819E+18,9.3973,226.2072,29.02,0.061,0,0.3052,0.6701,0.1531,-9.9741,9.6148,-40.9521,86.4913,0.0003,0.0391,2.8795,0,0,0,0,0,0,0,0,0,0,0,0,0,0,0,0,0,0,42.2941935,-83.7105211,269.078,0.011,0.008,-0.036,0.014,4,10,252.759,135,0.04,0.846,1.26,21,4,23,15,24,30,1.47819E+18,0,0,0,0,0,0,0,0,0,0,0,0,0,0,0,0,0,0,0,0,0,0,0,-0.1,-0.1,-0.1,-0.1,0,0,10.64,-9.2,49.0267,1.47819E+18,1.47819E+18,1.47819E+18,1.47819E+18,1.47819E+18,1.47819E+18,1.47819E+18,1.47819E+18,1.47819E+18,1.47819E+18,1.47819E+18,0,0,1.47819E+18
0,0,1.47819E+18,1.47819E+18,1.47819E+18,9.3965,226.2072,29.02,0.061,0,0.1221,0.6868,0.1866,-9.9646,9.6148,-40.9521,86.4913,0.0002,0.0391,2.8795,0,0,0,0,0,0,0,0,0,0,0,0,0,0,0,0,0,0,42.2941935,-83.7105211,269.078,0.011,0.008,-0.036,0.014,4,10,252.181,135,0.04,0.846,1.26,21,4,23,15,24,30,1.47819E+18,0,0,0,0,0,0,0,0,0,0,0,0,0,0,0,0,0,0,0,0,0,0,0,-0.1,-0.1,-0.1,-0.1,0,0,10.7733,-9.2533,49.0133,1.47819E+18,1.47819E+18,1.47819E+18,1.47819E+18,1.47819E+18,1.47819E+18,1.47819E+18,1.47819E+18,1.47819E+18,1.47819E+18,1.47819E+18,0,0,1.47819E+18
0,0,1.47819E+18,1.47819E+18,1.47819E+18,9.3965,226.2072,29.02,0.2441,0,0.2441,0.6796,0.1483,-9.9432,9.6148,-40.9521,86.4913,0.0003,0.0392,2.8795,0,0,0,0,0,0,0,0,0,0,0,0,0,0,0,0,0,0,42.2941935,-83.7105211,269.078,0.011,0.008,-0.036,0.014,4,10,252.181,135,0.04,0.846,1.26,21,4,23,15,24,30,1.47819E+18,0,0,0,0,0,0,0,0,0,0,0,0,0,0,0,0,0,0,0,0,0,0,0,-0.1,-0.1,-0.1,-0.1,0,0,10.72,-9.2533,49.0133,1.47819E+18,1.47819E+18,1.47819E+18,1.47819E+18,1.47819E+18,1.47819E+18,1.47819E+18,1.47819E+18,1.47819E+18,1.47819E+18,1.47819E+18,0,0,1.47819E+18
0,0,1.47819E+18,1.47819E+18,1.47819E+18,9.4036,226.2072,29.02,0.1831,0,0.1831,0.6796,0.1244,-9.9242,9.6148,-40.9521,86.4913,0.0003,0.0392,2.8795,0,0,0,0,0,0,0,0,0,0,0,0,0,0,0,0,0,0,42.2941935,-83.7105211,269.078,0.011,0.008,-0.036,0.014,4,10,252.181,135,0.04,0.846,1.26,21,4,23,15,24,30,1.47819E+18,0,0,0,0,0,0,0,0,0,0,0,0,0,0,0,0,0,0,0,0,0,0,0,-0.1,-0.1,-0.1,-0.1,0,0,10.72,-9.2533,49.0133,1.47819E+18,1.47819E+18,1.47819E+18,1.47819E+18,1.47819E+18,1.47819E+18,1.47819E+18,1.47819E+18,1.47819E+18,1.47819E+18,1.47819E+18,0,0,1.47819E+18
0,0,1.47819E+18,1.47819E+18,1.47819E+18,9.4053,226.2072,29.02,0.061,0,0.3662,0.7442,0.1387,-9.9598,11.0393,-39.8838,86.8346,0.0003,0.0392,2.8795,0,0,0,0,0,0,0,0,0,0,0,0,0,0,0,0,0,0,42.2941935,-83.7105211,269.078,0.011,0.008,-0.036,0.014,4,10,252.181,135,0.04,0.846,1.26,21,4,23,15,24,30,1.47819E+18,0,0,0,0,0,0,0,0,0,0,0,0,0,0,0,0,0,0,0,0,0,0,0,-0.1,-0.1,-0.1,-0.1,0,0,10.6533,-9.1733,49,1.47819E+18,1.47819E+18,1.47819E+18,1.47819E+18,1.47819E+18,1.47819E+18,1.47819E+18,1.47819E+18,1.47819E+18,1.47819E+18,1.47819E+18,0,0,1.47819E+18
0,0,1.47819E+18,1.47819E+18,1.47819E+18,9.4038,226.2072,29.02,0.061,0,0.3662,0.7275,0.1674,-9.9337,11.0393,-39.8838,86.8346,0.0003,0.0393,2.8795,0,0,0,0,0,0,0,0,0,0,0,0,0,0,0,0,0,0,42.2941935,-83.7105211,269.078,0.011,0.008,-0.036,0.014,4,10,252.181,135,0.04,0.846,1.26,21,4,23,15,24,30,1.47819E+18,0,0,0,0,0,0,0,0,0,0,0,0,0,0,0,0,0,0,0,0,0,0,0,-0.1,-0.1,-0.1,-0.1,0,0,10.8133,-9.36,49.3067,1.47819E+18,1.47819E+18,1.47819E+18,1.47819E+18,1.47819E+18,1.47819E+18,1.47819E+18,1.47819E+18,1.47819E+18,1.47819E+18,1.47819E+18,0,0,1.47819E+18
0,0,1.47819E+18,1.47819E+18,1.47819E+18,9.4038,226.2072,29.02,0,0,0.1831,0.7227,0.1459,-9.9076,11.0393,-39.8838,86.8346,0.0002,0.0394,2.8795,0,0,0,0,0,0,0,0,0,0,0,0,0,0,0,0,0,0,42.2941935,-83.7105211,269.078,0.011,0.008,-0.036,0.014,4,10,255.964,135,0.04,0.846,1.26,21,4,23,15,24,30,1.47819E+18,0,0,0,0,0,0,0,0,0,0,0,0,0,0,0,0,0,0,0,0,0,0,0,-0.1,-0.1,-0.1,-0.1,0,0,10.84,-9.3867,49.0533,1.47819E+18,1.47819E+18,1.47819E+18,1.47819E+18,1.47819E+18,1.47819E+18,1.47819E+18,1.47819E+18,1.47819E+18,1.47819E+18,1.47819E+18,0,0,1.47819E+18
0,0,1.47819E+18,1.47819E+18,1.47819E+18,9.4038,226.2072,29.02,-0.1221,-0.061,0.1221,0.682,0.1315,-9.9717,11.0393,-39.8838,86.8346,0.0002,0.0394,2.8795,0,0,0,0,0,0,0,0,0,0,0,0,0,0,0,0,0,0,42.2941935,-83.7105211,269.078,0.011,0.008,-0.036,0.014,4,10,255.964,135,0.04,0.846,1.26,21,4,23,15,24,30,1.47819E+18,0,0,0,0,0,0,0,0,0,0,0,0,0,0,0,0,0,0,0,0,0,0,0,-0.1,-0.1,-0.1,-0.1,0,0,10.6133,-9.1467,48.9733,1.47819E+18,1.47819E+18,1.47819E+18,1.47819E+18,1.47819E+18,1.47819E+18,1.47819E+18,1.47819E+18,1.47819E+18,1.47819E+18,1.47819E+18,0,0,1.47819E+18
0,0,1.47819E+18,1.47819E+18,1.47819E+18,9.4043,226.2072,29.02,0.1831,0,0.1221,0.6772,0.1196,-9.9361,12.2856,-41.1301,88.0358,0.0002,0.0394,2.8795,0,0,0,0,0,0,0,0,0,0,0,0,0,0,0,0,0,0,42.2941935,-83.7105211,269.078,0.011,0.008,-0.036,0.014,4,10,255.964,135,0.04,0.846,1.26,21,4,23,15,24,30,1.47819E+18,0,0,0,0,0,0,0,0,0,0,0,0,0,0,0,0,0,0,0,0,0,0,0,-0.1,-0.1,-0.1,-0.1,0,0,10.6533,-9.2667,48.96,1.47819E+18,1.47819E+18,1.47819E+18,1.47819E+18,1.47819E+18,1.47819E+18,1.47819E+18,1.47819E+18,1.47819E+18,1.47819E+18,1.47819E+18,0,0,1.47819E+18
0,0,1.47819E+18,1.47819E+18,1.47819E+18,9.404,226.2072,29.02,0,0.061,0.1221,0.7083,0.0837,-9.8863,12.2856,-41.1301,88.0358,0.0002,0.0395,2.8795,0,0,0,0,0,0,0,0,0,0,0,0,0,0,0,0,0,0,42.2941935,-83.7105211,269.078,0.011,0.008,-0.036,0.014,4,10,255.964,135,0.04,0.846,1.26,21,4,23,15,24,30,1.47819E+18,0,0,0,0,0,0,0,0,0,0,0,0,0,0,0,0,0,0,0,0,0,0,0,-0.1,-0.1,-0.1,-0.1,0,0,10.64,-9.2267,49.0133,1.47819E+18,1.47819E+18,1.47819E+18,1.47819E+18,1.47819E+18,1.47819E+18,1.47819E+18,1.47819E+18,1.47819E+18,1.47819E+18,1.47819E+18,0,0,1.47819E+18
0,0,1.47819E+18,1.47819E+18,1.47819E+18,9.405,226.2215,29.02,0,0,0.4272,0.6772,0.1435,-9.9717,12.2856,-41.1301,88.0358,0.0002,0.0395,2.8795,0,0,0,0,0,0,0,0,0,0,0,0,0,0,0,0,0,0,42.2941935,-83.7105211,269.078,0.011,0.008,-0.036,0.014,4,10,255.964,135,0.04,0.846,1.26,21,4,23,15,24,30,1.47819E+18,0,0,0,0,0,0,0,0,0,0,0,0,0,0,0,0,0,0,0,0,0,0,0,-0.1,-0.1,-0.1,-0.1,0,0,10.64,-9.2267,49.0133,1.47819E+18,1.47819E+18,1.47819E+18,1.47819E+18,1.47819E+18,1.47819E+18,1.47819E+18,1.47819E+18,1.47819E+18,1.47819E+18,1.47819E+18,0,0,1.47819E+18
0,0,1.47819E+18,1.47819E+18,1.47819E+18,9.4065,226.2215,29.02,0,0,0.3052,0.7107,0.1315,-9.9409,12.2856,-41.1301,88.0358,0.0002,0.0395,2.8795,0,0,0,0,0,0,0,0,0,0,0,0,0,0,0,0,0,0,42.2941935,-83.7105211,269.078,0.011,0.008,-0.036,0.014,4,10,255.964,135,0.04,0.846,1.26,21,4,23,15,24,30,1.47819E+18,0,0,0,0,0,0,0,0,0,0,0,0,0,0,0,0,0,0,0,0,0,0,0,-0.1,-0.1,-0.1,-0.1,0,0,10.6933,-9.1333,48.9867,1.47819E+18,1.47819E+18,1.47819E+18,1.47819E+18,1.47819E+18,1.47819E+18,1.47819E+18,1.47819E+18,1.47819E+18,1.47819E+18,1.47819E+18,0,0,1.47819E+18
0,0,1.47819E+18,1.47819E+18,1.47819E+18,9.4072,226.2215,29.02,0,0,0.1831,0.682,0.1292,-9.9812,11.0393,-39.1716,88.5507,0.0002,0.0395,2.8795,0,0,0,0,0,0,0,0,0,0,0,0,0,0,0,0,0,0,42.2941935,-83.7105211,269.078,0.011,0.008,-0.036,0.014,4,10,255.964,135,0.04,0.846,1.26,21,4,23,15,24,30,1.47819E+18,0,0,0,0,0,0,0,0,0,0,0,0,0,0,0,0,0,0,0,0,0,0,0,-0.1,-0.1,-0.1,-0.1,0,0,10.6133,-9.24,49,1.47819E+18,1.47819E+18,1.47819E+18,1.47819E+18,1.47819E+18,1.47819E+18,1.47819E+18,1.47819E+18,1.47819E+18,1.47819E+18,1.47819E+18,0,0,1.47819E+18
0,0,1.47819E+18,1.47819E+18,1.47819E+18,9.4069,226.2215,29.02,0.061,-0.061,0.2441,0.6748,0.1292,-9.9432,11.0393,-39.1716,88.5507,0.0002,0.0396,2.8795,0,0,0,0,0,0,0,0,0,0,0,0,0,0,0,0,0,0,42.2941935,-83.7105211,269.078,0.011,0.008,-0.036,0.014,4,10,252.181,135,0.04,0.846,1.26,21,4,23,15,24,30,1.47819E+18,0,0,0,0,0,0,0,0,0,0,0,0,0,0,0,0,0,0,0,0,0,0,0,-0.1,-0.1,-0.1,-0.1,0,0,10.6267,-9.2133,48.9467,1.47819E+18,1.47819E+18,1.47819E+18,1.47819E+18,1.47819E+18,1.47819E+18,1.47819E+18,1.47819E+18,1.47819E+18,1.47819E+18,1.47819E+18,0,0,1.47819E+18
0,0,1.47819E+18,1.47819E+18,1.47819E+18,9.4069,226.2215,29.02,-0.061,-0.1831,0.1831,0.6844,0.1531,-9.9456,11.0393,-39.1716,88.5507,0.0002,0.0396,2.8794,0,0,0,0,0,0,0,0,0,0,0,0,0,0,0,0,0,0,42.2941935,-83.7105211,269.078,0.011,0.008,-0.036,0.014,4,10,252.181,135,0.04,0.846,1.26,21,4,23,15,24,30,1.47819E+18,0,0,0,0,0,0,0,0,0,0,0,0,0,0,0,0,0,0,0,0,0,0,0,-0.1,-0.1,-0.1,-0.1,0,0,10.6267,-9.2133,48.9467,1.47819E+18,1.47819E+18,1.47819E+18,1.47819E+18,1.47819E+18,1.47819E+18,1.47819E+18,1.47819E+18,1.47819E+18,1.47819E+18,1.47819E+18,0,0,1.47819E+18
0,0,1.47819E+18,1.47819E+18,1.47819E+18,9.4082,226.2215,29.02,0,-0.1221,0,0.682,0.11,-9.9788,11.0393,-39.1716,88.5507,0.0002,0.0396,2.8794,0,0,0,0,0,0,0,0,0,0,0,0,0,0,0,0,0,0,42.2941935,-83.7105211,269.078,0.011,0.008,-0.036,0.014,4,10,252.181,135,0.04,0.846,1.26,21,4,23,15,24,30,1.47819E+18,0,0,0,0,0,0,0,0,0,0,0,0,0,0,0,0,0,0,0,0,0,0,0,-0.1,-0.1,-0.1,-0.1,0,0,10.6533,-9.4667,49.0267,1.47819E+18,1.47819E+18,1.47819E+18,1.47819E+18,1.47819E+18,1.47819E+18,1.47819E+18,1.47819E+18,1.47819E+18,1.47819E+18,1.47819E+18,0,0,1.47819E+18
0,0,1.47819E+18,1.47819E+18,1.47819E+18,9.4084,226.2215,29.02,0.061,0.061,0.1221,0.706,0.1196,-9.9147,11.5734,-40.0618,88.0358,0.0002,0.0396,2.8794,0,0,0,0,0,0,0,0,0,0,0,0,0,0,0,0,0,0,42.2941935,-83.7105211,269.078,0.011,0.008,-0.036,0.014,4,10,252.181,135,0.04,0.846,1.26,21,4,23,15,24,30,1.47819E+18,0,0,0,0,0,0,0,0,0,0,0,0,0,0,0,0,0,0,0,0,0,0,0,-0.1,-0.1,-0.1,-0.1,0,0,10.6133,-9.2267,49.0533,1.47819E+18,1.47819E+18,1.47819E+18,1.47819E+18,1.47819E+18,1.47819E+18,1.47819E+18,1.47819E+18,1.47819E+18,1.47819E+18,1.47819E+18,0,0,1.47819E+18
0,0,1.47819E+18,1.47819E+18,1.47819E+18,9.4086,226.2215,29.02,0,0,0.2441,0.7012,0.1483,-9.8792,11.5734,-40.0618,88.0358,0.0002,0.0397,2.8794,0,0,0,0,0,0,0,0,0,0,0,0,0,0,0,0,0,0,42.2941935,-83.7105211,269.078,0.011,0.008,-0.036,0.014,4,10,252.181,135,0.04,0.846,1.26,21,4,23,15,24,30,1.47819E+18,0,0,0,0,0,0,0,0,0,0,0,0,0,0,0,0,0,0,0,0,0,0,0,-0.1,-0.1,-0.1,-0.1,0,0,10.6533,-9.1733,48.9067,1.47819E+18,1.47819E+18,1.47819E+18,1.47819E+18,1.47819E+18,1.47819E+18,1.47819E+18,1.47819E+18,1.47819E+18,1.47819E+18,1.47819E+18,0,0,1.47819E+18
0,0,1.47819E+18,1.47819E+18,1.47819E+18,9.4084,226.2215,29.02,0.1221,0,0.2441,0.6748,0.1268,-9.9432,11.5734,-40.0618,88.0358,0.0002,0.0397,2.8794,0,0,0,0,0,0,0,0,0,0,0,0,0,0,0,0,0,0,42.2941935,-83.7105211,269.078,0.011,0.008,-0.036,0.014,4,10,257.005,135,0.04,0.846,1.26,21,4,23,15,24,30,1.47819E+18,0,0,0,0,0,0,0,0,0,0,0,0,0,0,0,0,0,0,0,0,0,0,0,-0.1,-0.1,-0.1,-0.1,0,0,10.68,-9.1733,49.0933,1.47819E+18,1.47819E+18,1.47819E+18,1.47819E+18,1.47819E+18,1.47819E+18,1.47819E+18,1.47819E+18,1.47819E+18,1.47819E+18,1.47819E+18,0,0,1.47819E+18
0,0,1.47819E+18,1.47819E+18,1.47819E+18,9.406,226.2215,29.02,-0.061,-0.1221,0.4272,0.6629,0.1124,-9.9361,11.5734,-40.0618,88.0358,0.0002,0.0397,2.8794,0,0,0,0,0,0,0,0,0,0,0,0,0,0,0,0,0,0,42.2941935,-83.7105211,269.078,0.011,0.008,-0.036,0.014,4,10,257.005,135,0.04,0.846,1.26,21,4,23,15,24,30,1.47819E+18,0,0,0,0,0,0,0,0,0,0,0,0,0,0,0,0,0,0,0,0,0,0,0,-0.1,-0.1,-0.1,-0.1,0,0,10.68,-9.1733,49.0933,1.47819E+18,1.47819E+18,1.47819E+18,1.47819E+18,1.47819E+18,1.47819E+18,1.47819E+18,1.47819E+18,1.47819E+18,1.47819E+18,1.47819E+18,0,0,1.47819E+18
0,0,1.47819E+18,1.47819E+18,1.47819E+18,9.4067,226.1933,29.02,0,0,0.2441,0.6916,0.1172,-9.9812,11.3954,-41.3082,86.4913,0.0002,0.0398,2.8794,0,0,0,0,0,0,0,0,0,0,0,0,0,0,0,0,0,0,42.2941935,-83.7105211,269.078,0.011,0.008,-0.036,0.014,4,10,257.005,135,0.04,0.846,1.26,21,4,23,15,24,30,1.47819E+18,0,0,0,0,0,0,0,0,0,0,0,0,0,0,0,0,0,0,0,0,0,0,0,-0.1,-0.1,-0.1,-0.1,0,0,10.6267,-9.2267,49.0933,1.47819E+18,1.47819E+18,1.47819E+18,1.47819E+18,1.47819E+18,1.47819E+18,1.47819E+18,1.47819E+18,1.47819E+18,1.47819E+18,1.47819E+18,0,0,1.47819E+18
0,0,1.47819E+18,1.47819E+18,1.47819E+18,9.4074,226.1933,29.02,0,0,0,0.6413,0.0933,-9.948,11.3954,-41.3082,86.4913,0.0001,0.0398,2.8794,0,0,0,0,0,0,0,0,0,0,0,0,0,0,0,0,0,0,42.2941935,-83.7105211,269.078,0.011,0.008,-0.036,0.014,4,10,257.005,135,0.04,0.846,1.26,21,4,23,15,24,30,1.47819E+18,0,0,0,0,0,0,0,0,0,0,0,0,0,0,0,0,0,0,0,0,0,0,0,-0.1,-0.1,-0.1,-0.1,0,0,10.6667,-9.2533,48.8933,1.47819E+18,1.47819E+18,1.47819E+18,1.47819E+18,1.47819E+18,1.47819E+18,1.47819E+18,1.47819E+18,1.47819E+18,1.47819E+18,1.47819E+18,0,0,1.47819E+18
0,0,1.47819E+18,1.47819E+18,1.47819E+18,9.4021,226.1933,29.02,0.1221,0,0,0.6916,0.1507,-9.9242,11.3954,-41.3082,86.4913,0.0002,0.0398,2.8793,0,0,0,0,0,0,0,0,0,0,0,0,0,0,0,0,0,0,42.2941935,-83.7105211,269.078,0.011,0.008,-0.036,0.014,4,10,257.005,135,0.04,0.846,1.26,21,4,23,15,24,30,1.47819E+18,0,0,0,0,0,0,0,0,0,0,0,0,0,0,0,0,0,0,0,0,0,0,0,-0.1,-0.1,-0.1,-0.1,0,0,10.7067,-9.1867,48.9867,1.47819E+18,1.47819E+18,1.47819E+18,1.47819E+18,1.47819E+18,1.47819E+18,1.47819E+18,1.47819E+18,1.47819E+18,1.47819E+18,1.47819E+18,0,0,1.47819E+18
0,0,1.47819E+18,1.47819E+18,1.47819E+18,9.4024,226.1933,29.02,0.061,0,0.1221,0.6796,0.1148,-9.9076,11.3954,-41.3082,86.4913,0.0002,0.0398,2.8793,0,0,0,0,0,0,0,0,0,0,0,0,0,0,0,0,0,0,42.2941935,-83.7105211,269.078,0.011,0.008,-0.036,0.014,4,10,257.005,135,0.04,0.846,1.26,21,4,23,15,24,30,1.47819E+18,0,0,0,0,0,0,0,0,0,0,0,0,0,0,0,0,0,0,0,0,0,0,0,-0.1,-0.1,-0.1,-0.1,0,0,10.7067,-9.1867,48.9867,1.47819E+18,1.47819E+18,1.47819E+18,1.47819E+18,1.47819E+18,1.47819E+18,1.47819E+18,1.47819E+18,1.47819E+18,1.47819E+18,1.47819E+18,0,0,1.47819E+18
0,0,1.47819E+18,1.47819E+18,1.47819E+18,9.404,226.1933,29.02,0.061,0.061,0.3052,0.6772,0.1698,-9.9124,11.2173,-40.4179,88.0358,0.0002,0.0399,2.8793,0,0,0,0,0,0,0,0,0,0,0,0,0,0,0,0,0,0,42.2941935,-83.7105211,269.078,0.011,0.008,-0.036,0.014,4,10,257.005,135,0.04,0.846,1.26,21,4,23,15,24,30,1.47819E+18,0,0,0,0,0,0,0,0,0,0,0,0,0,0,0,0,0,0,0,0,0,0,0,-0.1,-0.1,-0.1,-0.1,0,0,13.48,-9.24,49.0533,1.47819E+18,1.47819E+18,1.47819E+18,1.47819E+18,1.47819E+18,1.47819E+18,1.47819E+18,1.47819E+18,1.47819E+18,1.47819E+18,1.47819E+18,0,0,1.47819E+18
0,0,1.47819E+18,1.47819E+18,1.47819E+18,9.4055,226.1933,29.02,-0.061,-0.1831,0.4272,0.7179,0.1483,-9.9337,11.2173,-40.4179,88.0358,0.0001,0.0399,2.8793,0,0,0,0,0,0,0,0,0,0,0,0,0,0,0,0,0,0,42.2941935,-83.7105211,269.078,0.011,0.008,-0.036,0.014,4,10,257.905,135,0.04,0.846,1.26,21,4,23,15,24,30,1.47819E+18,0,0,0,0,0,0,0,0,0,0,0,0,0,0,0,0,0,0,0,0,0,0,0,-0.1,-0.1,-0.1,-0.1,0,0,10.6267,-9.28,48.9867,1.47819E+18,1.47819E+18,1.47819E+18,1.47819E+18,1.47819E+18,1.47819E+18,1.47819E+18,1.47819E+18,1.47819E+18,1.47819E+18,1.47819E+18,0,0,1.47819E+18
0,0,1.47819E+18,1.47819E+18,1.47819E+18,9.4055,226.1933,29.02,-0.061,-0.1221,0.4272,0.6796,0.177,-9.9551,11.2173,-40.4179,88.0358,0.0001,0.0399,2.8793,0,0,0,0,0,0,0,0,0,0,0,0,0,0,0,0,0,0,42.2941935,-83.7105211,269.078,0.011,0.008,-0.036,0.014,4,10,257.905,135,0.04,0.846,1.26,21,4,23,15,24,30,1.47819E+18,0,0,0,0,0,0,0,0,0,0,0,0,0,0,0,0,0,0,0,0,0,0,0,-0.1,-0.1,-0.1,-0.1,0,0,10.7333,-9.16,49,1.47819E+18,1.47819E+18,1.47819E+18,1.47819E+18,1.47819E+18,1.47819E+18,1.47819E+18,1.47819E+18,1.47819E+18,1.47819E+18,1.47819E+18,0,0,1.47819E+18
0,0,1.47819E+18,1.47819E+18,1.47819E+18,9.4062,226.1933,29.02,0,0,0.2441,0.6557,0.1244,-9.967,11.2173,-40.4179,88.0358,0.0001,0.04,2.8793,0,0,0,0,0,0,0,0,0,0,0,0,0,0,0,0,0,0,42.2941935,-83.7105211,269.078,0.011,0.008,-0.036,0.014,4,10,257.905,135,0.04,0.846,1.26,21,4,23,15,24,30,1.47819E+18,0,0,0,0,0,0,0,0,0,0,0,0,0,0,0,0,0,0,0,0,0,0,0,-0.1,-0.1,-0.1,-0.1,0,0,10.7333,-9.16,49,1.47819E+18,1.47819E+18,1.47819E+18,1.47819E+18,1.47819E+18,1.47819E+18,1.47819E+18,1.47819E+18,1.47819E+18,1.47819E+18,1.47819E+18,0,0,1.47819E+18
0,0,1.47819E+18,1.47819E+18,1.47819E+18,9.4062,226.1933,29.02,0.2441,0,0,0.6868,0.1435,-9.9527,9.9709,-40.9521,87.1778,0.0001,0.04,2.8793,0,0,0,0,0,0,0,0,0,0,0,0,0,0,0,0,0,0,42.2941935,-83.7105211,269.078,0.011,0.008,-0.036,0.014,4,10,257.905,135,0.04,0.846,1.26,21,4,23,15,24,30,1.47819E+18,0,0,0,0,0,0,0,0,0,0,0,0,0,0,0,0,0,0,0,0,0,0,0,-0.1,-0.1,-0.1,-0.1,0,0,10.68,-9.1867,49.0133,1.47819E+18,1.47819E+18,1.47819E+18,1.47819E+18,1.47819E+18,1.47819E+18,1.47819E+18,1.47819E+18,1.47819E+18,1.47819E+18,1.47819E+18,0,0,1.47819E+18
0,0,1.47819E+18,1.47819E+18,1.47819E+18,9.4069,226.1933,29.02,0.1831,0,0,0.6653,0.1028,-9.9741,9.9709,-40.9521,87.1778,0.0001,0.04,2.8793,0,0,0,0,0,0,0,0,0,0,0,0,0,0,0,0,0,0,42.2941935,-83.7105211,269.078,0.011,0.008,-0.036,0.014,4,10,257.905,135,0.04,0.846,1.26,21,4,23,15,24,30,1.47819E+18,0,0,0,0,0,0,0,0,0,0,0,0,0,0,0,0,0,0,0,0,0,0,0,-0.1,-0.1,-0.1,-0.1,0,0,10.64,-9.2267,48.9067,1.47819E+18,1.47819E+18,1.47819E+18,1.47819E+18,1.47819E+18,1.47819E+18,1.47819E+18,1.47819E+18,1.47819E+18,1.47819E+18,1.47819E+18,0,0,1.47819E+18
0,0,1.47819E+18,1.47819E+18,1.47819E+18,9.4067,226.2454,29.02,0.2441,0,0,0.6964,0.1172,-9.9361,9.9709,-40.9521,87.1778,0.0002,0.04,2.8793,0,0,0,0,0,0,0,0,0,0,0,0,0,0,0,0,0,0,42.2941935,-83.7105211,269.078,0.011,0.008,-0.036,0.014,4,10,257.905,135,0.04,0.846,1.26,21,4,23,15,24,30,1.47819E+18,0,0,0,0,0,0,0,0,0,0,0,0,0,0,0,0,0,0,0,0,0,0,0,-0.1,-0.1,-0.1,-0.1,0,0,10.6533,-9.2,48.9867,1.47819E+18,1.47819E+18,1.47819E+18,1.47819E+18,1.47819E+18,1.47819E+18,1.47819E+18,1.47819E+18,1.47819E+18,1.47819E+18,1.47819E+18,0,0,1.47819E+18
0,0,1.47819E+18,1.47819E+18,1.47819E+18,9.4062,226.2454,29.02,0,-0.061,0.2441,0.6533,0.177,-9.9171,9.9709,-40.9521,87.1778,0.0002,0.0401,2.8793,0,0,0,0,0,0,0,0,0,0,0,0,0,0,0,0,0,0,42.2941935,-83.7105211,269.078,0.011,0.008,-0.036,0.014,4,10,257.905,135,0.04,0.846,1.26,21,4,23,15,24,30,1.47819E+18,0,0,0,0,0,0,0,0,0,0,0,0,0,0,0,0,0,0,0,0,0,0,0,-0.1,-0.1,-0.1,-0.1,0,0,10.6533,-9.2,48.9867,1.47819E+18,1.47819E+18,1.47819E+18,1.47819E+18,1.47819E+18,1.47819E+18,1.47819E+18,1.47819E+18,1.47819E+18,1.47819E+18,1.47819E+18,0,0,1.47819E+18
0,0,1.47819E+18,1.47819E+18,1.47819E+18,9.406,226.2454,29.02,-0.061,-0.1221,0.4883,0.6892,0.1387,-9.9575,11.9295,-41.4862,88.0358,0.0001,0.0401,2.8793,0,0,0,0,0,0,0,0,0,0,0,0,0,0,0,0,0,0,42.2941935,-83.7105211,269.078,0.011,0.008,-0.036,0.014,4,10,254.578,135,0.04,0.846,1.26,21,4,23,15,24,30,1.47819E+18,0,0,0,0,0,0,0,0,0,0,0,0,0,0,0,0,0,0,0,0,0,0,0,-0.1,-0.1,-0.1,-0.1,0,0,10.68,-9.2133,49.0533,1.47819E+18,1.47819E+18,1.47819E+18,1.47819E+18,1.47819E+18,1.47819E+18,1.47819E+18,1.47819E+18,1.47819E+18,1.47819E+18,1.47819E+18,0,0,1.47819E+18
0,0,1.47819E+18,1.47819E+18,1.47819E+18,9.4072,226.2454,29.02,-0.1831,-0.1831,0.3052,0.6844,0.1387,-9.9978,11.9295,-41.4862,88.0358,0.0001,0.0401,2.8793,0,0,0,0,0,0,0,0,0,0,0,0,0,0,0,0,0,0,42.2941936,-83.7105211,269.094,0.022,0.008,-0.052,0.032,4,10,254.578,161.565,0.04,0.846,1.26,21,4,23,15,24,31,1.47819E+18,0,0,0,0,0,0,0,0,0,0,0,0,0,0,0,0,0,0,0,0,0,0,0,-0.1,-0.1,-0.1,-0.1,0,0,10.6933,-9.1867,49.0667,1.47819E+18,1.47819E+18,1.47819E+18,1.47819E+18,1.47819E+18,1.47819E+18,1.47819E+18,1.47819E+18,1.47819E+18,1.47819E+18,1.47819E+18,0,0,1.47819E+18
0,0,1.47819E+18,1.47819E+18,1.47819E+18,9.4086,226.2454,29.02,-0.061,-0.1221,0.3052,0.6796,0.1292,-9.9954,11.9295,-41.4862,88.0358,0.0001,0.0401,2.8793,0,0,0,0,0,0,0,0,0,0,0,0,0,0,0,0,0,0,42.2941936,-83.7105211,269.094,0.022,0.008,-0.052,0.032,4,10,254.578,161.565,0.04,0.846,1.26,21,4,23,15,24,31,1.47819E+18,0,0,0,0,0,0,0,0,0,0,0,0,0,0,0,0,0,0,0,0,0,0,0,-0.1,-0.1,-0.1,-0.1,0,0,10.6533,-9.2933,48.9867,1.47819E+18,1.47819E+18,1.47819E+18,1.47819E+18,1.47819E+18,1.47819E+18,1.47819E+18,1.47819E+18,1.47819E+18,1.47819E+18,1.47819E+18,0,0,1.47819E+18
0,0,1.47819E+18,1.47819E+18,1.47819E+18,9.4084,226.2454,29.02,0.061,-0.061,0,0.694,0.1387,-9.9385,11.9295,-41.4862,88.0358,0.0001,0.0401,2.8793,0,0,0,0,0,0,0,0,0,0,0,0,0,0,0,0,0,0,42.2941936,-83.7105211,269.094,0.022,0.008,-0.052,0.032,4,10,254.578,161.565,0.04,0.846,1.26,21,4,23,15,24,31,1.47819E+18,0,0,0,0,0,0,0,0,0,0,0,0,0,0,0,0,0,0,0,0,0,0,0,-0.1,-0.1,-0.1,-0.1,0,0,10.6533,-9.2533,49.0667,1.47819E+18,1.47819E+18,1.47819E+18,1.47819E+18,1.47819E+18,1.47819E+18,1.47819E+18,1.47819E+18,1.47819E+18,1.47819E+18,1.47819E+18,0,0,1.47819E+18
0,0,1.47819E+18,1.47819E+18,1.47819E+18,9.4079,226.2454,29.02,0,0,0.1831,0.6988,0.1602,-10.0073,11.0393,-39.8838,88.8939,0.0001,0.0402,2.8793,0,0,0,0,0,0,0,0,0,0,0,0,0,0,0,0,0,0,42.2941936,-83.7105211,269.094,0.022,0.008,-0.052,0.032,4,10,254.578,161.565,0.04,0.846,1.26,21,4,23,15,24,31,1.47819E+18,0,0,0,0,0,0,0,0,0,0,0,0,0,0,0,0,0,0,0,0,0,0,0,-0.1,-0.1,-0.1,-0.1,0,0,10.6533,-9.2533,49.0667,1.47819E+18,1.47819E+18,1.47819E+18,1.47819E+18,1.47819E+18,1.47819E+18,1.47819E+18,1.47819E+18,1.47819E+18,1.47819E+18,1.47819E+18,0,0,1.47819E+18
0,0,1.47819E+18,1.47819E+18,1.47819E+18,9.4077,226.2454,29.02,0,0.061,0.3052,0.694,0.1411,-9.9432,11.0393,-39.8838,88.8939,0.0001,0.0402,2.8792,0,0,0,0,0,0,0,0,0,0,0,0,0,0,0,0,0,0,42.2941936,-83.7105211,269.094,0.022,0.008,-0.052,0.032,4,10,254.578,161.565,0.04,0.846,1.26,21,4,23,15,24,31,1.47819E+18,0,0,0,0,0,0,0,0,0,0,0,0,0,0,0,0,0,0,0,0,0,0,0,-0.1,-0.1,-0.1,-0.1,0,0,10.7067,-9.1733,49.0133,1.47819E+18,1.47819E+18,1.47819E+18,1.47819E+18,1.47819E+18,1.47819E+18,1.47819E+18,1.47819E+18,1.47819E+18,1.47819E+18,1.47819E+18,0,0,1.47819E+18
0,0,1.47819E+18,1.47819E+18,1.47819E+18,9.4069,226.2454,29.02,-0.1831,-0.1221,0.3052,0.6916,0.1172,-9.9314,11.0393,-39.8838,88.8939,0.0001,0.0402,2.8792,0,0,0,0,0,0,0,0,0,0,0,0,0,0,0,0,0,0,42.2941936,-83.7105211,269.094,0.022,0.008,-0.052,0.032,4,10,253.496,161.565,0.04,0.846,1.26,21,4,23,15,24,31,1.47819E+18,0,0,0,0,0,0,0,0,0,0,0,0,0,0,0,0,0,0,0,0,0,0,0,-0.1,-0.1,-0.1,-0.1,0,0,10.6533,-9.32,48.96,1.47819E+18,1.47819E+18,1.47819E+18,1.47819E+18,1.47819E+18,1.47819E+18,1.47819E+18,1.47819E+18,1.47819E+18,1.47819E+18,1.47819E+18,0,0,1.47819E+18
0,0,1.47819E+18,1.47819E+18,1.47819E+18,9.4094,226.2454,29.02,0.061,0,0.3052,0.7155,0.1913,-9.9717,11.0393,-39.8838,88.8939,0.0001,0.0403,2.8792,0,0,0,0,0,0,0,0,0,0,0,0,0,0,0,0,0,0,42.2941936,-83.7105211,269.094,0.022,0.008,-0.052,0.032,4,10,253.496,161.565,0.04,0.846,1.26,21,4,23,15,24,31,1.47819E+18,0,0,0,0,0,0,0,0,0,0,0,0,0,0,0,0,0,0,0,0,0,0,0,-0.1,-0.1,-0.1,-0.1,0,0,10.6933,-9.2267,49.0267,1.47819E+18,1.47819E+18,1.47819E+18,1.47819E+18,1.47819E+18,1.47819E+18,1.47819E+18,1.47819E+18,1.47819E+18,1.47819E+18,1.47819E+18,0,0,1.47819E+18
0,0,1.47819E+18,1.47819E+18,1.47819E+18,9.4084,226.2454,29.02,0.061,0,0.3052,0.694,0.1244,-9.9598,11.0393,-40.2399,87.1778,0.0001,0.0403,2.8792,0,0,0,0,0,0,0,0,0,0,0,0,0,0,0,0,0,0,42.2941936,-83.7105211,269.094,0.022,0.008,-0.052,0.032,4,10,253.496,161.565,0.04,0.846,1.26,21,4,23,15,24,31,1.47819E+18,0,0,0,0,0,0,0,0,0,0,0,0,0,0,0,0,0,0,0,0,0,0,0,-0.1,-0.1,-0.1,-0.1,0,0,10.6933,-9.2267,49.0267,1.47819E+18,1.47819E+18,1.47819E+18,1.47819E+18,1.47819E+18,1.47819E+18,1.47819E+18,1.47819E+18,1.47819E+18,1.47819E+18,1.47819E+18,0,0,1.47819E+18
0,0,1.47819E+18,1.47819E+18,1.47819E+18,9.4079,226.2454,29.02,-0.061,-0.1221,0.2441,0.706,0.1196,-9.9598,11.0393,-40.2399,87.1778,0.0001,0.0403,2.8792,0,0,0,0,0,0,0,0,0,0,0,0,0,0,0,0,0,0,42.2941936,-83.7105211,269.094,0.022,0.008,-0.052,0.032,4,10,253.496,161.565,0.04,0.846,1.26,21,4,23,15,24,31,1.47819E+18,0,0,0,0,0,0,0,0,0,0,0,0,0,0,0,0,0,0,0,0,0,0,0,-0.1,-0.1,-0.1,-0.1,0,0,10.7467,-9.2267,49.0267,1.47819E+18,1.47819E+18,1.47819E+18,1.47819E+18,1.47819E+18,1.47819E+18,1.47819E+18,1.47819E+18,1.47819E+18,1.47819E+18,1.47819E+18,0,0,1.47819E+18
0,0,1.47819E+18,1.47819E+18,1.47819E+18,9.4127,226.2454,29.02,0,-0.061,0,0.6677,0.1363,-9.9693,11.0393,-40.2399,87.1778,0.0001,0.0403,2.8792,0,0,0,0,0,0,0,0,0,0,0,0,0,0,0,0,0,0,42.2941936,-83.7105211,269.094,0.022,0.008,-0.052,0.032,4,10,253.496,161.565,0.04,0.846,1.26,21,4,23,15,24,31,1.47819E+18,0,0,0,0,0,0,0,0,0,0,0,0,0,0,0,0,0,0,0,0,0,0,0,-0.1,-0.1,-0.1,-0.1,0,0,10.5867,-9.3067,48.9867,1.47819E+18,1.47819E+18,1.47819E+18,1.47819E+18,1.47819E+18,1.47819E+18,1.47819E+18,1.47819E+18,1.47819E+18,1.47819E+18,1.47819E+18,0,0,1.47819E+18
0,0,1.47819E+18,1.47819E+18,1.47819E+18,9.4123,226.2454,29.02,0.061,0.061,0.1831,0.7203,0.1339,-9.9314,11.0393,-40.2399,87.1778,0.0001,0.0404,2.8792,0,0,0,0,0,0,0,0,0,0,0,0,0,0,0,0,0,0,42.2941936,-83.7105211,269.094,0.022,0.008,-0.052,0.032,4,10,253.496,161.565,0.04,0.846,1.26,21,4,23,15,24,31,1.47819E+18,0,0,0,0,0,0,0,0,0,0,0,0,0,0,0,0,0,0,0,0,0,0,0,-0.1,-0.1,-0.1,-0.1,0,0,10.6667,-9.2533,51.08,1.47819E+18,1.47819E+18,1.47819E+18,1.47819E+18,1.47819E+18,1.47819E+18,1.47819E+18,1.47819E+18,1.47819E+18,1.47819E+18,1.47819E+18,0,0,1.47819E+18
0,0,1.47819E+18,1.47819E+18,1.47819E+18,9.4115,226.2454,29.02,0,0,0.1221,0.7323,0.1244,-9.9717,9.2587,-40.2399,87.1778,0.0001,0.0404,2.8792,0,0,0,0,0,0,0,0,0,0,0,0,0,0,0,0,0,0,42.2941936,-83.7105211,269.094,0.022,0.008,-0.052,0.032,4,10,253.496,161.565,0.04,0.846,1.26,21,4,23,15,24,31,1.47819E+18,0,0,0,0,0,0,0,0,0,0,0,0,0,0,0,0,0,0,0,0,0,0,0,-0.1,-0.1,-0.1,-0.1,0,0,10.6667,-9.2533,51.08,1.47819E+18,1.47819E+18,1.47819E+18,1.47819E+18,1.47819E+18,1.47819E+18,1.47819E+18,1.47819E+18,1.47819E+18,1.47819E+18,1.47819E+18,0,0,1.47819E+18
0,0,1.47819E+18,1.47819E+18,1.47819E+18,9.4111,226.2454,29.02,0,0,0.1831,0.6701,0.1602,-9.9361,9.2587,-40.2399,87.1778,0,0.0404,2.8792,0,0,0,0,0,0,0,0,0,0,0,0,0,0,0,0,0,0,42.2941936,-83.7105211,269.094,0.022,0.008,-0.052,0.032,4,10,251.565,161.565,0.04,0.846,1.26,21,4,23,15,24,31,1.47819E+18,0,0,0,0,0,0,0,0,0,0,0,0,0,0,0,0,0,0,0,0,0,0,0,-0.1,-0.1,-0.1,-0.1,0,0,10.7067,-9.24,49.0667,1.47819E+18,1.47819E+18,1.47819E+18,1.47819E+18,1.47819E+18,1.47819E+18,1.47819E+18,1.47819E+18,1.47819E+18,1.47819E+18,1.47819E+18,0,0,1.47819E+18
0,0,1.47819E+18,1.47819E+18,1.47819E+18,9.4111,226.2454,29.02,0,-0.1221,0.4272,0.6629,0.1483,-10.0144,9.2587,-40.2399,87.1778,0,0.0405,2.8792,0,0,0,0,0,0,0,0,0,0,0,0,0,0,0,0,0,0,42.2941936,-83.7105211,269.094,0.022,0.008,-0.052,0.032,4,10,251.565,161.565,0.04,0.846,1.26,21,4,23,15,24,31,1.47819E+18,0,0,0,0,0,0,0,0,0,0,0,0,0,0,0,0,0,0,0,0,0,0,0,-0.1,-0.1,-0.1,-0.1,0,0,10.6267,-9.24,49.0133,1.47819E+18,1.47819E+18,1.47819E+18,1.47819E+18,1.47819E+18,1.47819E+18,1.47819E+18,1.47819E+18,1.47819E+18,1.47819E+18,1.47819E+18,0,0,1.47819E+18
0,0,1.47819E+18,1.47819E+18,1.47819E+18,9.4106,226.2454,29.02,0,-0.1221,0.3052,0.6868,0.1052,-9.91,9.2587,-40.2399,87.1778,0,0.0405,2.8792,0,0,0,0,0,0,0,0,0,0,0,0,0,0,0,0,0,0,42.2941936,-83.7105211,269.094,0.022,0.008,-0.052,0.032,4,10,251.565,161.565,0.04,0.846,1.26,21,4,23,15,24,31,1.47819E+18,0,0,0,0,0,0,0,0,0,0,0,0,0,0,0,0,0,0,0,0,0,0,0,-0.1,-0.1,-0.1,-0.1,0,0,10.6933,-9.2,48.96,1.47819E+18,1.47819E+18,1.47819E+18,1.47819E+18,1.47819E+18,1.47819E+18,1.47819E+18,1.47819E+18,1.47819E+18,1.47819E+18,1.47819E+18,0,0,1.47819E+18
0,0,1.47819E+18,1.47819E+18,1.47819E+18,9.4108,226.2454,29.02,0.1831,0,0.1831,0.6701,0.1435,-9.9717,12.4637,-41.3082,87.521,0,0.0405,2.8792,0,0,0,0,0,0,0,0,0,0,0,0,0,0,0,0,0,0,42.2941936,-83.7105211,269.094,0.022,0.008,-0.052,0.032,4,10,251.565,161.565,0.04,0.846,1.26,21,4,23,15,24,31,1.47819E+18,0,0,0,0,0,0,0,0,0,0,0,0,0,0,0,0,0,0,0,0,0,0,0,-0.1,-0.1,-0.1,-0.1,0,0,10.6933,-9.2,48.96,1.47819E+18,1.47819E+18,1.47819E+18,1.47819E+18,1.47819E+18,1.47819E+18,1.47819E+18,1.47819E+18,1.47819E+18,1.47819E+18,1.47819E+18,0,0,1.47819E+18
0,0,1.47819E+18,1.47819E+18,1.47819E+18,9.4106,226.2454,29.02,0,0,0.2441,0.6748,0.1387,-9.9622,12.4637,-41.3082,87.521,0,0.0405,2.8792,0,0,0,0,0,0,0,0,0,0,0,0,0,0,0,0,0,0,42.2941936,-83.7105211,269.094,0.022,0.008,-0.052,0.032,4,10,251.565,161.565,0.04,0.846,1.26,21,4,23,15,24,31,1.47819E+18,0,0,0,0,0,0,0,0,0,0,0,0,0,0,0,0,0,0,0,0,0,0,0,-0.1,-0.1,-0.1,-0.1,0,0,10.6667,-9.1867,49.0267,1.47819E+18,1.47819E+18,1.47819E+18,1.47819E+18,1.47819E+18,1.47819E+18,1.47819E+18,1.47819E+18,1.47819E+18,1.47819E+18,1.47819E+18,0,0,1.47819E+18
0,0,1.47819E+18,1.47819E+18,1.47819E+18,9.4103,226.2172,29.02,0.1221,0,0.2441,0.7131,0.1746,-9.8958,12.4637,-41.3082,87.521,0,0.0406,2.8792,0,0,0,0,0,0,0,0,0,0,0,0,0,0,0,0,0,0,42.2941936,-83.7105211,269.094,0.022,0.008,-0.052,0.032,4,10,251.565,161.565,0.04,0.846,1.26,21,4,23,15,24,31,1.47819E+18,0,0,0,0,0,0,0,0,0,0,0,0,0,0,0,0,0,0,0,0,0,0,0,-0.1,-0.1,-0.1,-0.1,0,0,10.56,-9.2267,49.0133,1.47819E+18,1.47819E+18,1.47819E+18,1.47819E+18,1.47819E+18,1.47819E+18,1.47819E+18,1.47819E+18,1.47819E+18,1.47819E+18,1.47819E+18,0,0,1.47819E+18
0,0,1.47819E+18,1.47819E+18,1.47819E+18,9.4096,226.2172,29.02,0.061,0,0.3662,0.7227,0.1363,-9.9527,12.4637,-41.3082,87.521,0,0.0406,2.8792,0,0,0,0,0,0,0,0,0,0,0,0,0,0,0,0,0,0,42.2941936,-83.7105211,269.094,0.022,0.008,-0.052,0.032,4,10,251.565,161.565,0.04,0.846,1.26,21,4,23,15,24,31,1.47819E+18,0,0,0,0,0,0,0,0,0,0,0,0,0,0,0,0,0,0,0,0,0,0,0,-0.1,-0.1,-0.1,-0.1,0,0,10.6933,-9.2533,48.92,1.47819E+18,1.47819E+18,1.47819E+18,1.47819E+18,1.47819E+18,1.47819E+18,1.47819E+18,1.47819E+18,1.47819E+18,1.47819E+18,1.47819E+18,0,0,1.47819E+18
0,0,1.47819E+18,1.47819E+18,1.47819E+18,9.4098,226.2172,29.02,0.061,0,0.2441,0.6868,0.0861,-9.9693,10.6832,-40.2399,88.5507,0,0.0406,2.8792,0,0,0,0,0,0,0,0,0,0,0,0,0,0,0,0,0,0,42.2941936,-83.7105211,269.094,0.022,0.008,-0.052,0.032,4,10,255.53,161.565,0.04,0.846,1.26,21,4,23,15,24,31,1.47819E+18,0,0,0,0,0,0,0,0,0,0,0,0,0,0,0,0,0,0,0,0,0,0,0,-0.1,-0.1,-0.1,-0.1,0,0,10.6667,-9.2267,49.0133,1.47819E+18,1.47819E+18,1.47819E+18,1.47819E+18,1.47819E+18,1.47819E+18,1.47819E+18,1.47819E+18,1.47819E+18,1.47819E+18,1.47819E+18,0,0,1.47819E+18
0,0,1.47819E+18,1.47819E+18,1.47819E+18,9.4091,226.2172,29.02,0.061,0,0.1831,0.6844,0.1339,-9.9029,10.6832,-40.2399,88.5507,0,0.0406,2.8792,0,0,0,0,0,0,0,0,0,0,0,0,0,0,0,0,0,0,42.2941936,-83.7105211,269.094,0.022,0.008,-0.052,0.032,4,10,255.53,161.565,0.04,0.846,1.26,21,4,23,15,24,31,1.47819E+18,0,0,0,0,0,0,0,0,0,0,0,0,0,0,0,0,0,0,0,0,0,0,0,-0.1,-0.1,-0.1,-0.1,0,0,10.6667,-9.2267,49.0133,1.47819E+18,1.47819E+18,1.47819E+18,1.47819E+18,1.47819E+18,1.47819E+18,1.47819E+18,1.47819E+18,1.47819E+18,1.47819E+18,1.47819E+18,0,0,1.47819E+18
0,0,1.47819E+18,1.47819E+18,1.47819E+18,9.4101,226.2172,29.02,0,0,0.3662,0.6844,0.1172,-9.91,10.6832,-40.2399,88.5507,0,0.0407,2.8792,0,0,0,0,0,0,0,0,0,0,0,0,0,0,0,0,0,0,42.2941936,-83.7105211,269.094,0.022,0.008,-0.052,0.032,4,10,255.53,161.565,0.04,0.846,1.26,21,4,23,15,24,31,1.47819E+18,0,0,0,0,0,0,0,0,0,0,0,0,0,0,0,0,0,0,0,0,0,0,0,-0.1,-0.1,-0.1,-0.1,0,0,10.6667,-9.2133,48.9867,1.47819E+18,1.47819E+18,1.47819E+18,1.47819E+18,1.47819E+18,1.47819E+18,1.47819E+18,1.47819E+18,1.47819E+18,1.47819E+18,1.47819E+18,0,0,1.47819E+18
0,0,1.47819E+18,1.47819E+18,1.47819E+18,9.4089,226.2172,29.02,0,0,0.1831,0.6701,0.1339,-9.9005,10.6832,-40.2399,88.5507,0,0.0408,2.8792,0,0,0,0,0,0,0,0,0,0,0,0,0,0,0,0,0,0,42.2941936,-83.7105211,269.094,0.022,0.008,-0.052,0.032,4,10,255.53,161.565,0.04,0.846,1.26,21,4,23,15,24,31,1.47819E+18,0,0,0,0,0,0,0,0,0,0,0,0,0,0,0,0,0,0,0,0,0,0,0,-0.1,-0.1,-0.1,-0.1,0,0,10.84,-9.36,48.9467,1.47819E+18,1.47819E+18,1.47819E+18,1.47819E+18,1.47819E+18,1.47819E+18,1.47819E+18,1.47819E+18,1.47819E+18,1.47819E+18,1.47819E+18,0,0,1.47819E+18
0,0,1.47819E+18,1.47819E+18,1.47819E+18,9.4096,226.2172,29.02,0.1831,0,0.3662,0.6964,0.1579,-9.9005,11.5734,-39.7057,88.7223,0,0.0408,2.8792,0,0,0,0,0,0,0,0,0,0,0,0,0,0,0,0,0,0,42.2941936,-83.7105211,269.094,0.022,0.008,-0.052,0.032,4,10,260.218,161.565,0.04,0.846,1.26,21,4,23,15,24,31,1.47819E+18,0,0,0,0,0,0,0,0,0,0,0,0,0,0,0,0,0,0,0,0,0,0,0,-0.1,-0.1,-0.1,-0.1,0,0,10.84,-9.36,48.9467,1.47819E+18,1.47819E+18,1.47819E+18,1.47819E+18,1.47819E+18,1.47819E+18,1.47819E+18,1.47819E+18,1.47819E+18,1.47819E+18,1.47819E+18,0,0,1.47819E+18
