Timestamp,NMEA
1731841137,"$GNGSA,A,1,,,,,,,,,,,,,99.99,99.99,99.99,2*30"
1731841137,"$GNGSA,A,1,,,,,,,,,,,,,99.99,99.99,99.99,3*31"
1731841138,"$GNGSA,A,1,,,,,,,,,,,,,99.99,99.99,99.99,3*31"
1731841138,"$GNGSA,A,1,,,,,,,,,,,,,99.99,99.99,99.99,2*30"
1731841140,"$GNGSA,A,1,,,,,,,,,,,,,99.99,99.99,99.99,1*33"
1731841140,"$GNGSA,A,1,,,,,,,,,,,,,99.99,99.99,99.99,2*30"
1731841141,"$GNGSA,A,1,,,,,,,,,,,,,99.99,99.99,99.99,3*31"
1731841141,"$GNVTG,,,,,,,,,N*2E"
1731841141,"$GNGGA,,,,,,0,00,99.99,,,,,,*56"
1731841141,"$GNGSA,A,1,,,,,,,,,,,,,99.99,99.99,99.99,1*33"
1731841142,"$GNGGA,,,,,,0,00,99.99,,,,,,*56"
1731841142,"$GNGSA,A,1,,,,,,,,,,,,,99.99,99.99,99.99,1*33"
1731841143,"$GNVTG,,,,,,,,,N*2E"
1731841143,"$GNGGA,,,,,,0,00,99.99,,,,,,*56"
1731841146,"$GNGSA,A,1,,,,,,,,,,,,,99.99,99.99,99.99,3*31"
1731841146,"$GNVTG,,,,,,,,,N*2E"
1731841146,"$GNGGA,,,,,,0,00,99.99,,,,,,*56"
1731841146,"$GNGSA,A,1,,,,,,,,,,,,,99.99,99.99,99.99,1*33"
1731841147,"$GNGSA,A,1,,,,,,,,,,,,,99.99,99.99,99.99,3*31"
1731841149,"$GNGSA,A,1,,,,,,,,,,,,,99.99,99.99,99.99,1*33"
1731841149,"$GNGSA,A,1,,,,,,,,,,,,,99.99,99.99,99.99,2*30"
1731841150,"$GNGSA,A,1,,,,,,,,,,,,,99.99,99.99,99.99,2*30"
1731841151,"$GNGSA,A,1,,,,,,,,,,,,,99.99,99.99,99.99,2*30"
1731841151,"$GNGSA,A,1,,,,,,,,,,,,,99.99,99.99,99.99,3*31"
1731841153,"$GNGSA,A,1,,,,,,,,,,,,,99.99,99.99,99.99,3*31"
1731841154,"$GNGSA,A,1,,,,,,,,,,,,,99.99,99.99,99.99,3*31"
1731841155,"$GNGSA,A,1,,,,,,,,,,,,,99.99,99.99,99.99,2*30"
1731841156,"$GNGSA,A,1,,,,,,,,,,,,,99.99,99.99,99.99,4*36"
1731841156,"$GPGSV,1,1,00,1*64"
1731841157,"$GNVTG,,,,,,,,,N*2E"
1731841157,"$GNGGA,,,,,,0,00,99.99,,,,,,*56"
1731841157,"$GNGSA,A,1,,,,,,,,,,,,,99.99,99.99,99.99,1*33"
1731841158,"$GNGSA,A,1,,,,,,,,,,,,,99.99,99.99,99.99,2*30"
1731841158,"$GNGGA,,,,,,0,00,99.99,,,,,,*56"
1731841158,"$GNGSA,A,1,,,,,,,,,,,,,99.99,99.99,99.99,1*33"
1731841159,"$GNGSA,A,1,,,,,,,,,,,,,99.99,99.99,99.99,1*33"
1731841159,"$GNGSA,A,1,,,,,,,,,,,,,99.99,99.99,99.99,2*30"
1731841161,"$GNGSA,A,1,,,,,,,,,,,,,99.99,99.99,99.99,4*36"
1731841161,"$GPGSV,1,1,00,1*64"
1731841163,"$GNGSA,A,1,,,,,,,,,,,,,99.99,99.99,99.99,3*31"
1731841165,"$GNGSA,A,1,,,,,,,,,,,,,99.99,99.99,99.99,2*30"
1731841165,"$GNGSA,A,1,,,,,,,,,,,,,99.99,99.99,99.99,4*36"
1731841165,"$GPGSV,1,1,00,1*64"
1731841165,"$GLGSV,1,1,00,1*78"
1731841165,"$GAGSV,1,1,00,7*73"
1731841166,"$GNGSA,A,1,,,,,,,,,,,,,99.99,99.99,99.99,1*33"
1731841166,"$GNGSA,A,1,,,,,,,,,,,,,99.99,99.99,99.99,2*30"
1731841167,"$GNGSA,A,1,,,,,,,,,,,,,99.99,99.99,99.99,1*33"
1731841167,"$GNGSA,A,1,,,,,,,,,,,,,99.99,99.99,99.99,2*30"
1731841168,"$GNGSA,A,1,,,,,,,,,,,,,99.99,99.99,99.99,1*33"
1731841168,"$GNGSA,A,1,,,,,,,,,,,,,99.99,99.99,99.99,2*30"
1731841170,"$GNGSA,A,1,,,,,,,,,,,,,99.99,99.99,99.99,4*36"
1731841170,"$GPGSV,1,1,00,1*64"
1731841172,"$GNGSA,A,1,,,,,,,,,,,,,99.99,99.99,99.99,3*31"
1731841173,"$GNGGA,,,,,,0,00,99.99,,,,,,*56"
1731841173,"$GNGSA,A,1,,,,,,,,,,,,,99.99,99.99,99.99,1*33"
1731841174,"$GNGSA,A,1,,,,,,,,,,,,,99.99,99.99,99.99,3*31"
1731841176,"$GNGSA,A,1,,,,,,,,,,,,,99.99,99.99,99.99,4*36"
1731841176,"$GPGSV,1,1,00,1*64"
1731841177,"$GNGGA,,,,,,0,00,99.99,,,,,,*56"
1731841177,"$GNGSA,A,1,,,,,,,,,,,,,99.99,99.99,99.99,1*33"
1731841316,"$GNGSA,A,1,,,,,,,,,,,,,99.99,99.99,99.99,1*33"
1731841316,"$GNGSA,A,1,,,,,,,,,,,,,99.99,99.99,99.99,2*30"
1731841327,"$GNGSA,A,1,,,,,,,,,,,,,99.99,99.99,99.99,4*36"
1731841329,"$GNGSA,A,1,,,,,,,,,,,,,99.99,99.99,99.99,3*31"
1731841371,"$GNGSA,A,1,,,,,,,,,,,,,99.99,99.99,99.99,2*30"
1731841372,"$GNGSA,A,1,,,,,,,,,,,,,99.99,99.99,99.99,4*36"
1731841372,"$GPGSV,1,1,02,08,,,12,09,,,09,1*6D"
1731841372,"$GNVTG,,,,,,,,,N*2E"
1731841372,"$GNGGA,,,,,,0,00,99.99,,,,,,*56"
1731841372,"$GNGSA,A,1,,,,,,,,,,,,,99.99,99.99,99.99,1*33"
1731841372,"$GNGSA,A,1,,,,,,,,,,,,,99.99,99.99,99.99,3*31"
1731841373,"$GBGSV,1,1,00,1*76"
1731841373,"$GNGLL,,,,,,V,N*7A"
1731841373,"$GNRMC,,V,,,,,,,,,,N,V*37"
1731841373,"$GNVTG,,,,,,,,,N*2E"
1731841374,"$GNGSA,A,1,,,,,,,,,,,,,99.99,99.99,99.99,2*30"
1731841374,"$GNVTG,,,,,,,,,N*2E"
1731841374,"$GNGGA,,,,,,0,00,99.99,,,,,,*56"
1731841374,"$GNGSA,A,1,,,,,,,,,,,,,99.99,99.99,99.99,1*33"
1731841374,"$GPGSV,1,1,02,08,,,11,09,,,13,1*65"
1731841374,"$GLGSV,1,1,00,1*78"
1731841374,"$GAGSV,1,1,00,7*73"
1731841375,"$GNGSA,A,1,,,,,,,,,,,,,99.99,99.99,99.99,3*31"
1731841379,"$GNGSA,A,1,,,,,,,,,,,,,99.99,99.99,99.99,2*30"
1731841380,"$GLGSV,1,1,00,1*78"
1731841380,"$GAGSV,1,1,00,7*73"
1731841380,"$GBGSV,1,1,01,06,,,07,1*76"
1731841380,"$GNGLL,,,,,,V,N*7A"
1731841380,"$GNVTG,,,,,,,,,N*2E"
1731841380,"$GNGGA,,,,,,0,00,99.99,,,,,,*56"
1731841380,"$GNGSA,A,1,,,,,,,,,,,,,99.99,99.99,99.99,1*33"
1731841380,"$GNGSA,A,1,,,,,,,,,,,,,99.99,99.99,99.99,4*36"
1731841380,"$GPGSV,1,1,02,08,,,11,09,,,15,1*63"
1731841381,"$GNGSA,A,1,,,,,,,,,,,,,99.99,99.99,99.99,4*36"
1731841381,"$GPGSV,1,1,02,08,,,13,09,,,14,1*60"
1731841381,"$GNGSA,A,1,,,,,,,,,,,,,99.99,99.99,99.99,2*30"
1731841382,"$GNGSA,A,1,,,,,,,,,,,,,99.99,99.99,99.99,1*33"
1731841382,"$GNGSA,A,1,,,,,,,,,,,,,99.99,99.99,99.99,2*30"
1731841384,"$GNGSA,A,1,,,,,,,,,,,,,99.99,99.99,99.99,3*31"
1731841390,"$GAGSV,1,1,00,7*73"
1731841390,"$GBGSV,1,1,00,1*76"
1731841390,"$GNGLL,,,,,,V,N*7A"
1731841390,"$GNRMC,,V,,,,,,,,,,N,V*37"
1731841390,"$GNVTG,,,,,,,,,N*2E"
1731841390,"$GNGSA,A,1,,,,,,,,,,,,,99.99,99.99,99.99,1*33"
1731841390,"$GNGSA,A,1,,,,,,,,,,,,,99.99,99.99,99.99,2*30"
1731841390,"$GNGSA,A,1,,,,,,,,,,,,,99.99,99.99,99.99,4*36"
1731841390,"$GPGSV,1,1,04,08,,,14,09,,,11,11,,,18,12,,,24,1*68"
1731841391,"$GLGSV,1,1,00,1*78"
1731841391,"$GAGSV,1,1,00,7*73"
1731841391,"$GBGSV,1,1,00,1*76"
1731841391,"$GNGLL,,,,,,V,N*7A"
1731841391,"$GNRMC,,V,,,,,,,,,,N,V*37"
1731841391,"$GNVTG,,,,,,,,,N*2E"
1731841391,"$GNGGA,,,,,,0,00,99.99,,,,,,*56"
1731841391,"$GNGSA,A,1,,,,,,,,,,,,,99.99,99.99,99.99,1*33"
1731841391,"$GNGSA,A,1,,,,,,,,,,,,,99.99,99.99,99.99,2*30"
1731841391,"$GLGSV,1,1,00,1*78"
1731841391,"$GAGSV,1,1,00,7*73"
1731841391,"$GBGSV,1,1,01,09,,,07,1*79"
1731841391,"$GNGGA,,,,,,0,00,99.99,,,,,,*56"
1731841391,"$GNGSA,A,1,,,,,,,,,,,,,99.99,99.99,99.99,1*33"
1731841391,"$GNGSA,A,1,,,,,,,,,,,,,99.99,99.99,99.99,3*31"
1731841391,"$GNGSA,A,1,,,,,,,,,,,,,99.99,99.99,99.99,4*36"
1731841393,"$GNGGA,,,,,,0,00,99.99,,,,,,*56"
1731841393,"$GNGSA,A,1,,,,,,,,,,,,,99.99,99.99,99.99,1*33"
1731841393,"$GNGSA,A,1,,,,,,,,,,,,,99.99,99.99,99.99,3*31"
1731841393,"$GNGSA,A,1,,,,,,,,,,,,,99.99,99.99,99.99,4*36"
1731841394,"$GNGSA,A,1,,,,,,,,,,,,,99.99,99.99,99.99,3*31"
1731841394,"$GNGSA,A,1,,,,,,,,,,,,,99.99,99.99,99.99,4*36"
1731841524,"$GNGSA,A,1,,,,,,,,,,,,,99.99,99.99,99.99,4*36"
1731841524,"$GPGSV,1,1,01,31,,,08,1*6F"
1731841525,"$GNGSA,A,1,,,,,,,,,,,,,99.99,99.99,99.99,2*30"
1731841525,"$GNGSA,A,1,,,,,,,,,,,,,99.99,99.99,99.99,3*31"
1731841527,"$GNRMC,,V,,,,,,,,,,N,V*37"
1731841527,"$GNVTG,,,,,,,,,N*2E"
1731841527,"$GNGGA,,,,,,0,00,99.99,,,,,,*56"
1731841528,"$GPGSV,1,1,01,31,,,08,1*6F"
1731841528,"$GLGSV,1,1,00,1*78"
1731841528,"$GAGSV,1,1,00,7*73"
1731841529,"$GNGSA,A,1,,,,,,,,,,,,,99.99,99.99,99.99,3*31"
1731841529,"$GPGSV,1,1,01,31,,,08,1*6F"
1731841529,"$GLGSV,1,1,00,1*78"
1731841529,"$GAGSV,1,1,00,7*73"
1731841529,"$GBGSV,1,1,00,1*76"
1731841529,"$GNGLL,,,,,,V,N*7A"
1731841531,"$GNGSA,A,1,,,,,,,,,,,,,99.99,99.99,99.99,2*30"
1731841532,"$GNGSA,A,1,,,,,,,,,,,,,99.99,99.99,99.99,4*36"
1731841532,"$GPGSV,1,1,00,1*64"
1731841533,"$GNGSA,A,1,,,,,,,,,,,,,99.99,99.99,99.99,1*33"
1731841537,"$GNGSA,A,1,,,,,,,,,,,,,99.99,99.99,99.99,1*33"
1731841539,"$GNGSA,A,1,,,,,,,,,,,,,99.99,99.99,99.99,4*36"
1731841539,"$GPGSV,1,1,01,10,,,13,1*66"
1731841540,"$GNGSA,A,1,,,,,,,,,,,,,99.99,99.99,99.99,2*30"
1731841541,"$GNGSA,A,1,,,,,,,,,,,,,99.99,99.99,99.99,4*36"
1731841543,"$GNGSA,A,1,,,,,,,,,,,,,99.99,99.99,99.99,4*36"
1731841544,"$GNGSA,A,1,,,,,,,,,,,,,99.99,99.99,99.99,2*30"
1731841544,"$GNGSA,A,1,,,,,,,,,,,,,99.99,99.99,99.99,3*31"
1731841548,"$GNGSA,A,1,,,,,,,,,,,,,99.99,99.99,99.99,2*30"
1731841549,"$GNGSA,A,1,,,,,,,,,,,,,99.99,99.99,99.99,3*31"
1731841550,"$GNGSA,A,1,,,,,,,,,,,,,99.99,99.99,99.99,1*33"
1731841550,"$GNGSA,A,1,,,,,,,,,,,,,99.99,99.99,99.99,2*30"
1731841551,"$GNGSA,A,1,,,,,,,,,,,,,99.99,99.99,99.99,2*30"
1731841552,"$GNGGA,,,,,,0,00,99.99,,,,,,*56"
1731841552,"$GNGSA,A,1,,,,,,,,,,,,,99.99,99.99,99.99,1*33"
1731841552,"$GNGSA,A,1,,,,,,,,,,,,,99.99,99.99,99.99,3*31"
1731841552,"$GNGSA,A,1,,,,,,,,,,,,,99.99,99.99,99.99,4*36"
1731841553,"$GNGSA,A,1,,,,,,,,,,,,,99.99,99.99,99.99,3*31"
1731841553,"$GPGSV,2,1,08,01,,,10,02,,,09,07,,,08,10,,,10,1*6B"
1731841553,"$GPGSV,2,2,08,16,,,11,18,,,15,19,,,14,20,,,15,1*6D"
1731841554,"$GNGSA,A,1,,,,,,,,,,,,,99.99,99.99,99.99,1*33"
1731841554,"$GNGSA,A,1,,,,,,,,,,,,,99.99,99.99,99.99,2*30"
1731841555,"$GNGSA,A,1,,,,,,,,,,,,,99.99,99.99,99.99,3*31"
1731841555,"$GNGSA,A,1,,,,,,,,,,,,,99.99,99.99,99.99,4*36"
1731841561,"$GNGSA,A,1,,,,,,,,,,,,,99.99,99.99,99.99,2*30"
1731841561,"$GNGSA,A,1,,,,,,,,,,,,,99.99,99.99,99.99,1*33"
1731841561,"$GNGSA,A,1,,,,,,,,,,,,,99.99,99.99,99.99,2*30"
1731841561,"$GNGSA,A,1,,,,,,,,,,,,,99.99,99.99,99.99,4*36"
1731841563,"$GNGLL,,,,,,V,N*7A"
1731841563,"$GNRMC,,V,,,,,,,,,,N,V*37"
1731841563,"$GNVTG,,,,,,,,,N*2E"
1731841563,"$GNGGA,,,,,,0,00,99.99,,,,,,*56"
1731841564,"$GNRMC,,V,,,,,,,,,,N,V*37"
1731841564,"$GNVTG,,,,,,,,,N*2E"
1731841564,"$GNGGA,,,,,,0,00,99.99,,,,,,*56"
1731841565,"$GNGSA,A,1,,,,,,,,,,,,,99.99,99.99,99.99,2*30"
1731841565,"$GNGSA,A,1,,,,,,,,,,,,,99.99,99.99,99.99,3*31"
1731841565,"$GPGSV,1,1,04,01,,,11,10,,,12,18,,,09,20,,,09,1*68"
1731841565,"$GLGSV,1,1,00,1*78"
1731841565,"$GAGSV,1,1,00,7*73"
1731841573,"$GNGSA,A,1,,,,,,,,,,,,,99.99,99.99,99.99,1*33"
1731841573,"$GNGSA,A,1,,,,,,,,,,,,,99.99,99.99,99.99,2*30"
1731841575,"$GNGGA,,,,,,0,00,99.99,,,,,,*56"
1731841575,"$GNGSA,A,1,,,,,,,,,,,,,99.99,99.99,99.99,1*33"
1731841574,"$GNGSA,A,1,,,,,,,,,,,,,99.99,99.99,99.99,1*33"
1731841575,"$GNGSA,A,1,,,,,,,,,,,,,99.99,99.99,99.99,3*31"
1731841575,"$GNGSA,A,1,,,,,,,,,,,,,99.99,99.99,99.99,4*36"
1731841575,"$GNGGA,155709.00,,,,,0,00,99.99,,,,,,*77"
1731841575,"$GNGSA,A,1,,,,,,,,,,,,,99.99,99.99,99.99,1*33"
1731841576,"$GNGSA,A,1,,,,,,,,,,,,,99.99,99.99,99.99,4*36"
1731841576,"$GNVTG,,,,,,,,,N*2E"
1731841576,"$GNGGA,155710.00,,,,,0,00,99.99,,,,,,*7F"
1731841577,"$GPGSV,2,2,06,28,,,35,32,,,37,1*6B"
1731841577,"$GLGSV,1,1,03,90,,,38,,,,30,,,,38,1*71"
1731841577,"$GNGSA,A,1,,,,,,,,,,,,,99.99,99.99,99.99,2*30"
1731841578,"$GNGSA,A,1,,,,,,,,,,,,,99.99,99.99,99.99,4*36"
1731841578,"$GPGSV,2,1,06,02,,,29,08,,,21,10,,,27,21,,,29,1*6F"
1731841579,"$GPGSV,2,2,06,28,,,35,32,,,37,1*6B"
1731841579,"$GLGSV,1,1,03,90,,,40,,,,30,,,,39,1*7F"
1731841581,"$GNGSA,A,1,,,,,,,,,,,,,99.99,99.99,99.99,1*33"
1731841582,"$GNGSA,A,1,,,,,,,,,,,,,99.99,99.99,99.99,4*36"
1731841582,"$GPGSV,2,2,06,31,,,32,32,,,37,1*64"
1731841582,"$GLGSV,1,1,03,90,,,39,,,,31,,,,39,1*70"
1731841582,"$GAGSV,1,1,00,7*73"
1731841582,"$GNVTG,,,,,,,,,N*2E"
1731841582,"$GNGGA,155716.00,,,,,0,00,99.99,,,,,,*79"
1731841582,"$GNGSA,A,1,,,,,,,,,,,,,99.99,99.99,99.99,2*30"
1731841582,"$GNGSA,A,1,,,,,,,,,,,,,99.99,99.99,99.99,3*31"
1731841583,"$GPGSV,2,1,06,02,,,30,12,,,27,21,,,29,28,,,34,1*63"
1731841583,"$GPGSV,2,2,06,31,,,31,32,,,35,1*65"
1731841584,"$GNGSA,A,1,,,,,,,,,,,,,99.99,99.99,99.99,3*31"
1731841584,"$GNGSA,A,1,,,,,,,,,,,,,99.99,99.99,99.99,4*36"
1731841584,"$GLGSV,1,1,03,90,,,40,,,,30,,,,39,1*7F"
1731841584,"$GAGSV,1,1,00,7*73"
1731841584,"$GBGSV,1,1,00,1*76"
1731841584,"$GNGLL,,,,,155717.00,V,N*54"
1731841584,"$GNRMC,155718.00,V,,,,,,,171124,,,N,V*16"
1731841584,"$GNVTG,,,,,,,,,N*2E"
1731841585,"$GNGSA,A,1,,,,,,,,,,,,,99.99,99.99,99.99,4*36"
1731841585,"$GPGSV,2,1,06,02,,,30,12,,,27,21,,,29,28,,,34,1*63"
1731841585,"$GNRMC,155719.00,V,,,,,,,171124,,,N,V*17"
1731841585,"$GNVTG,,,,,,,,,N*2E"
1731841587,"$GNGLL,,,,,155720.00,V,N*50"
1731841587,"$GNRMC,155721.00,V,,,,,,,171124,,,N,V*1C"
1731841587,"$GNVTG,,,,,,,,,N*2E"
1731841587,"$GNGSA,A,1,,,,,,,,,,,,,99.99,99.99,99.99,1*33"
1731841587,"$GNGSA,A,1,,,,,,,,,,,,,99.99,99.99,99.99,2*30"
1731841588,"$GPGSV,2,1,06,02,,,31,12,,,27,21,,,29,28,,,35,1*63"
1731841588,"$GPGSV,2,2,06,31,,,33,32,,,37,1*65"
1731841588,"$GNGGA,155722.00,,,,,0,00,99.99,,,,,,*7E"
1731841588,"$GNGSA,A,1,,,,,,,,,,,,,99.99,99.99,99.99,1*33"
1731841590,"$GPGSV,2,1,06,02,,,31,12,,,28,21,,,29,28,,,35,1*6C"
1731841591,"$GPGSV,2,1,06,02,,,30,12,,,27,21,,,29,28,,,32,1*65"
1731841592,"$GLGSV,1,1,02,,,,33,,,,35,1*7C"
1731841592,"$GAGSV,1,1,00,7*73"
1731841592,"$GBGSV,1,1,00,1*76"
1731841592,"$GNRMC,155726.00,A,4149.23145,N,08622.18277,W,0.096,,171124,,,A,V*07"
1731841592,"$GNVTG,,T,,M,0.096,N,0.177,K,A*33"
1731841592,"$GNGSA,A,3,31,21,28,32,,,,,,,,,7.07,4.56,5.41,1*0C"
1731841593,"$GNVTG,,T,,M,0.441,N,0.817,K,A*32"
1731841594,"$GNGSA,A,3,,,,,,,,,,,,,7.07,4.56,5.41,4*03"
1731841594,"$GAGSV,1,1,01,03,,,31,7*73"
1731841594,"$GBGSV,1,1,00,1*76"
1731841594,"$GNVTG,,T,,M,0.277,N,0.514,K,A*3F"
1731841595,"$GNGSA,A,3,31,21,28,32,,,,,,,,,7.07,4.56,5.41,1*0C"
1731841595,"$GNGSA,A,3,,,,,,,,,,,,,7.07,4.56,5.41,4*03"
1731841595,"$GLGSV,1,1,03,,,,30,,,,40,,,,35,1*7A"
1731841595,"$GAGSV,1,1,01,03,,,31,7*73"
1731841596,"$GNGSA,A,3,31,21,28,32,,,,,,,,,7.07,4.56,5.41,1*0C"
1731841596,"$GNGSA,A,3,,,,,,,,,,,,,7.07,4.56,5.41,4*03"
1731841597,"$GNGSA,A,3,,,,,,,,,,,,,7.07,4.56,5.40,4*02"
1731841597,"$GPGSV,2,2,06,31,46,226,32,32,63,059,36,1*68"
1731841597,"$GLGSV,1,1,03,,,,30,,,,38,,,,37,1*77"
1731841597,"$GBGSV,1,1,00,1*76"
1731841597,"$GNGLL,4149.23172,N,08622.18276,W,155730.00,A,A*69"
1731841597,"$GNVTG,,T,,M,0.433,N,0.801,K,A*30"
1731841597,"$GNGGA,155731.00,4149.23163,N,08622.18268,W,1,04,4.57,218.5,M,-34.0,M,,*74"
1731841598,"$GNGSA,A,3,,,,,,,,,,,,,7.07,4.57,5.40,3*04"
1731841599,"$GNGSA,A,3,,,,,,,,,,,,,7.07,4.57,5.40,2*05"
1731841603,"$GNGSA,A,1,,,,,,,,,,,,,99.99,99.99,99.99,1*33"
1731841603,"$GNGSA,A,1,,,,,,,,,,,,,99.99,99.99,99.99,2*30"
1731841604,"$GNGSA,A,1,,,,,,,,,,,,,99.99,99.99,99.99,3*31"
1731841605,"$GPGSV,2,1,06,02,,,29,12,,,28,21,25,263,30,28,82,232,34,1*65"
1731841605,"$GPGSV,2,2,06,31,46,226,31,32,63,059,36,1*6B"
1731841605,"$GAGSV,1,1,01,03,,,28,7*7B"
1731841605,"$GBGSV,1,1,00,1*76"
1731841605,"$GNGLL,,,,,155738.00,V,N*59"
1731841605,"$GNGGA,155739.00,,,,,0,00,99.99,,,,,,*74"
1731841605,"$GNGSA,A,1,,,,,,,,,,,,,99.99,99.99,99.99,1*33"
1731841605,"$GNGSA,A,1,,,,,,,,,,,,,99.99,99.99,99.99,4*36"
1731841606,"$GNGSA,A,1,,,,,,,,,,,,,99.99,99.99,99.99,3*31"
1731841606,"$GPGSV,2,1,06,02,,,29,12,,,27,21,25,263,29,28,82,232,34,1*62"
1731841606,"$GPGSV,2,2,06,31,46,226,32,32,63,059,37,1*69"
1731841607,"$GNGGA,155741.00,4149.23630,N,08622.18629,W,1,05,2.52,220.9,M,-34.0,M,,*76"
1731841607,"$GNGSA,A,3,,,,,,,,,,,,,4.45,2.52,3.66,3*00"
1731841608,"$GNRMC,155742.00,A,4149.23731,N,08622.18674,W,0.277,,171124,,,A,V*0A"
1731841609,"$GNGSA,A,3,74,73,,,,,,,,,,,11.51,4.67,10.52,2*02"
1731841609,"$GNGSA,A,3,,,,,,,,,,,,,11.51,4.67,10.52,4*03"
1731841609,"$GPGSV,2,1,06,02,,,30,12,,,27,21,25,263,29,28,82,232,32,1*6C"
1731841613,"$GNGSA,A,3,31,21,28,32,,,,,,,,,4.36,2.37,3.66,1*0F"
1731841614,"$GLGSV,2,2,06,,,,38,,,,35,1*73"
1731841614,"$GAGSV,1,1,01,03,,,31,7*73"
1731841615,"$GNVTG,,T,,M,0.618,N,1.144,K,A*32"
1731841615,"$GNGSA,A,3,31,21,28,32,,,,,,,,,4.37,2.37,3.66,1*0E"
1731841615,"$GNGSA,A,3,,,,,,,,,,,,,4.37,2.37,3.66,3*06"
1731841615,"$GNGSA,A,3,,,,,,,,,,,,,4.37,2.37,3.66,4*01"
1731841616,"$GLGSV,2,1,06,65,07,305,,73,50,052,37,74,62,146,32,,,,40,1*4C"
1731841616,"$GNGGA,155750.00,4149.23838,N,08622.18969,W,1,06,2.37,235.6,M,-34.0,M,,*70"
1731841617,"$GLGSV,2,1,06,65,07,305,,73,50,052,39,74,62,146,33,,,,41,1*42"
1731841617,"$GNRMC,155751.00,A,4149.23816,N,08622.18956,W,0.220,,171124,,,A,V*0F"
1731841617,"$GNGSA,A,3,31,21,28,32,,,,,,,,,4.37,2.38,3.66,1*01"
1731841618,"$GNGSA,A,3,,,,,,,,,,,,,4.37,2.38,3.66,4*0E"
1731841618,"$GPGSV,2,2,07,28,82,232,33,31,46,226,33,32,63,059,35,1*58"
1731841618,"$GAGSV,1,1,01,03,,,30,7*72"
1731841618,"$GBGSV,1,1,00,1*76"
1731841618,"$GNGLL,4149.23816,N,08622.18956,W,155751.00,A,A*6C"
1731841618,"$GNVTG,,T,,M,0.155,N,0.287,K,A*31"
1731841619,"$GNGSA,A,3,74,73,,,,,,,,,,,4.37,2.38,3.66,2*0F"
1731841619,"$GLGSV,2,1,06,65,07,305,,73,50,052,39,74,62,146,33,,,,39,1*4D"
1731841623,"$GNGSA,A,3,,,,,,,,,,,,,4.37,2.38,3.66,4*0E"
1731841624,"$GNGSA,A,3,31,21,28,32,,,,,,,,,4.37,2.38,3.66,1*01"
1731841625,"$GPGSV,2,2,08,21,25,263,29,28,82,233,34,31,46,226,32,32,63,059,34,1*69"
1731841625,"$GNGLL,4149.23769,N,08622.18910,W,155756.00,A,A*6E"
1731841625,"$GNVTG,,T,,M,0.207,N,0.383,K,A*30"
1731841625,"$GNGGA,155757.00,4149.23768,N,08622.18906,W,1,06,2.38,234.7,M,-34.0,M,,*7B"
1731841625,"$GNGSA,A,3,74,73,,,,,,,,,,,4.37,2.38,3.66,2*0F"
1731841626,"$GNRMC,155758.00,A,4149.23759,N,08622.18907,W,0.541,,171124,,,A,V*06"
1731841626,"$GNGSA,A,3,74,73,,,,,,,,,,,4.37,2.38,3.66,2*0F"
1731841627,"$GBGSV,1,1,00,1*76"
1731841627,"$GNGLL,4149.23759,N,08622.18907,W,155758.00,A,A*65"
1731841628,"$GPGSV,2,2,08,21,25,263,29,28,82,233,35,31,46,226,32,32,63,059,31,1*6D"
1731841628,"$GNRMC,155800.00,A,4149.23748,N,08622.18886,W,0.100,,171124,,,A,V*0D"
1731841629,"$GNGGA,155800.00,4149.23748,N,08622.18886,W,1,06,2.38,232.8,M,-34.0,M,,*74"
1731841631,"$GNGLL,4149.23748,N,08622.18886,W,155800.00,A,A*6F"
1731841632,"$GNGSA,A,3,31,21,28,32,,,,,,,,,4.37,2.38,3.66,1*01"
1731841632,"$GNGSA,A,3,,,,,,,,,,,,,4.37,2.38,3.66,3*09"
1731841632,"$GNGSA,A,3,,,,,,,,,,,,,4.37,2.38,3.66,4*0E"
1731841632,"$GPGSV,2,2,08,21,25,263,29,28,82,233,35,31,46,226,31,32,63,059,35,1*6A"
1731841632,"$GLGSV,2,2,06,,,,40,,,,34,1*7D"
1731841632,"$GAGSV,1,1,01,03,,,30,7*72"
1731841632,"$GBGSV,1,1,00,1*76"
1731841632,"$GNVTG,,T,,M,0.419,N,0.776,K,A*37"
1731841633,"$GNGSA,A,3,31,21,28,32,,,,,,,,,4.37,2.38,3.66,1*01"
1731841633,"$GNGSA,A,3,,,,,,,,,,,,,4.37,2.38,3.66,3*09"
1731841633,"$GNGSA,A,3,,,,,,,,,,,,,4.37,2.38,3.66,4*0E"
1731841633,"$GPGSV,3,3,09,44,33,222,27,1*5A"
1731841633,"$GNGSA,A,3,31,21,28,32,,,,,,,,,4.37,2.39,3.66,1*00"
1731841633,"$GNGSA,A,3,,,,,,,,,,,,,4.37,2.39,3.66,3*08"
1731841634,"$GNGLL,4149.23725,N,08622.18825,W,155803.00,A,A*6E"
1731841634,"$GNGSA,A,3,31,21,28,32,,,,,,,,,4.37,2.39,3.66,1*00"
1731841635,"$GBGSV,1,1,00,1*76"
1731841635,"$GNGLL,4149.23711,N,08622.18808,W,155804.00,A,A*61"
1731841636,"$GNGSA,A,3,31,21,28,32,,,,,,,,,4.37,2.39,3.66,1*00"
1731841637,"$GNGGA,155806.00,4149.23698,N,08622.18809,W,1,06,2.39,230.5,M,-34.0,M,,*77"
1731841637,"$GNGSA,A,3,,,,,,,,,,,,,4.37,2.39,3.66,4*0F"
1731841637,"$GPGSV,2,2,07,28,82,233,37,31,46,226,37,32,63,059,39,1*55"
1731841637,"$GNVTG,,T,,M,0.110,N,0.203,K,A*3C"
1731841638,"$GNGSA,A,3,,,,,,,,,,,,,4.37,2.39,3.66,4*0F"
1731841638,"$GPGSV,2,2,08,28,82,233,36,31,46,226,37,32,63,059,39,44,33,222,32,1*68"
1731841639,"$GNRMC,155808.00,A,4149.23692,N,08622.18794,W,0.449,,171124,,,A,V*07"
1731841639,"$GNGGA,155808.00,4149.23692,N,08622.18794,W,1,06,2.39,229.9,M,-34.0,M,,*7C"
1731841639,"$GPGSV,2,1,08,02,,,33,10,,,35,19,,,22,21,25,263,32,1*50"
1731841639,"$GLGSV,2,1,06,65,07,305,,73,50,052,39,74,62,146,34,,,,36,1*45"
1731841639,"$GAGSV,1,1,01,03,,,32,7*70"
1731841639,"$GBGSV,1,1,00,1*76"
1731841639,"$GNGLL,4149.23692,N,08622.18794,W,155808.00,A,A*6D"
1731841652,"$GNGSA,A,3,02,31,21,28,32,10,,,,,,,2.50,1.11,2.23,1*0D"
1731841652,"$GNGSA,A,3,03,,,,,,,,,,,,2.50,1.11,2.23,3*05"
1731841652,"$GLGSV,2,1,08,65,08,305,,70,09,110,,71,51,082,33,72,57,341,29,1*72"
1731841657,"$GNGSA,A,3,02,31,21,28,32,10,,,,,,,2.49,1.11,2.23,1*05"
1731841657,"$GPGSV,2,2,07,31,46,226,36,32,63,059,38,44,33,222,34,1*56"
1731841658,"$GNGGA,155830.00,4149.23329,N,08622.18373,W,1,11,1.11,222.4,M,-34.0,M,,*76"
1731841659,"$GPGSV,2,2,07,31,46,226,36,32,63,059,38,44,33,222,34,1*56"
1731841659,"$GLGSV,2,1,08,65,08,305,,70,09,110,,71,51,082,33,72,57,341,30,1*7A"
1731841659,"$GLGSV,2,2,08,73,50,052,38,74,62,146,34,,,,34,,,,34,1*7E"
1731841659,"$GNRMC,155831.00,A,4149.23335,N,08622.18372,W,0.324,,171124,,,A,V*05"
1731841659,"$GNGGA,155831.00,4149.23335,N,08622.18372,W,1,11,1.11,221.8,M,-34.0,M,,*74"
1731841660,"$GPGSV,2,1,08,02,24,283,30,10,40,150,33,21,25,262,33,25,,,29,1*5E"
1731841660,"$GLGSV,2,1,08,65,08,305,,70,09,110,,71,51,082,33,72,57,341,29,1*72"
1731841661,"$GLGSV,2,1,08,65,08,305,,70,09,110,,71,51,082,32,72,57,341,28,1*72"
1731841661,"$GNGLL,4149.23338,N,08622.18366,W,155832.00,A,A*68"
1731841662,"$GNGGA,155833.00,4149.23335,N,08622.18367,W,1,11,1.11,221.2,M,-34.0,M,,*78"
1731841662,"$GNGSA,A,3,74,73,71,72,,,,,,,,,2.49,1.11,2.23,2*0B"
1731841662,"$GNGSA,A,3,03,,,,,,,,,,,,2.49,1.11,2.23,3*0D"
1731841663,"$GPGSV,2,1,08,02,24,283,28,10,40,150,33,21,25,262,34,25,,,32,1*5A"
1731841663,"$GLGSV,2,1,08,65,08,305,,70,09,110,,71,51,082,34,72,57,341,33,1*7E"
1731841663,"$GNRMC,155834.00,A,4149.23334,N,08622.18375,W,0.206,,171124,,,A,V*07"
1731841663,"$GNGGA,155834.00,4149.23334,N,08622.18375,W,1,11,1.11,221.5,M,-34.0,M,,*7A"
1731841663,"$GNGSA,A,3,,,,,,,,,,,,,2.49,1.11,2.23,4*09"
1731841664,"$GPGSV,3,2,09,26,,,23,28,82,234,37,31,47,227,34,32,63,060,37,1*5F"
1731841664,"$GPGSV,3,3,09,44,33,222,29,1*54"
1731841664,"$GNGSA,A,3,,,,,,,,,,,,,2.49,1.11,2.23,4*09"
1731841665,"$GPGSV,3,3,09,44,33,222,31,1*5D"
1731841665,"$GNRMC,155836.00,A,4149.23337,N,08622.18377,W,0.107,,171124,,,A,V*06"
1731841666,"$GPGSV,3,3,09,44,33,222,34,1*58"
1731841666,"$GLGSV,2,1,08,65,08,305,,70,09,110,,71,51,082,35,72,57,341,30,1*7C"
1731841667,"$GNRMC,155837.00,A,4149.23335,N,08622.18379,W,0.156,,171124,,,A,V*0F"
1731841667,"$GNGGA,155837.00,4149.23335,N,08622.18379,W,1,11,1.11,221.8,M,-34.0,M,,*79"
1731841667,"$GNGSA,A,3,74,73,71,72,,,,,,,,,2.49,1.11,2.23,2*0B"
1731841667,"$GNGSA,A,3,03,,,,,,,,,,,,2.49,1.11,2.23,3*0D"
1731841668,"$GNGSA,A,3,74,73,71,72,,,,,,,,,2.49,1.11,2.23,2*0B"
1731841669,"$GNGSA,A,3,,,,,,,,,,,,,2.49,1.11,2.23,4*09"
1731841669,"$GPGSV,3,1,09,02,24,283,29,10,40,150,31,21,25,262,34,25,,,33,1*58"
1731841669,"$GPGSV,3,3,09,44,33,222,33,1*5F"
1731841669,"$GLGSV,2,2,08,73,50,052,39,74,62,146,34,,,,37,,,,22,1*7B"
                                                                                                                                                                                                                                                                                                                                                                                                                                                                                                                                                                                                                                                                                                                                                                                                                                                                                                                                                                                                                                                                                                                                                                                                                                                                                                                                                                                                                                                                                                                                                                                                                                                                                                                                                                                                                                                                                                                                                                                                                                                                                                                                                                                                                                                                                                                                                                                                                                                                                                        1731841698,"$GNGSA,A,1,,,,,,,,,,,,,99.99,99.99,99.99,1*33"
1731841707,"$GNGSA,A,1,10,28,32,,,,,,,,,,5.35,3.59,3.97,1*08"
1731841708,"$GNGSA,A,1,73,,,,,,,,,,,,5.35,3.59,3.97,2*05"
1731841709,"$GNVTG,,,,,,,,,N*2E"
1731841709,"$GNGGA,162520.00,,,,,0,04,3.59,,,,,,*41"
1731841709,"$GPGSV,2,1,07,02,,,29,10,28,155,33,21,18,252,28,25,,,28,1*6B"
1731841709,"$GLGSV,1,1,03,65,18,313,26,73,39,040,38,,,,34,1*72"
1731841709,"$GAGSV,1,1,00,7*73"
1731841709,"$GBGSV,1,1,00,1*76"
1731841710,"$GNGSA,A,1,,,,,,,,,,,,,99.99,99.99,99.99,3*31"
1731841710,"$GNGSA,A,1,,,,,,,,,,,,,99.99,99.99,99.99,4*36"
1731841710,"$GNRMC,162522.00,V,,,,,,,171124,,,N,V*19"
1731841710,"$GNVTG,,,,,,,,,N*2E"
1731841713,"$GAGSV,1,1,00,7*73"
1731841713,"$GBGSV,1,1,01,22,,,33,1*77"
1731841713,"$GNGLL,,,,,162523.00,V,N*55"
1731841714,"$GNVTG,,,,,,,,,N*2E"
1731841714,"$GNGGA,162525.00,,,,,0,04,3.54,,,,,,*49"
1731841715,"$GPGSV,2,1,07,02,,,24,10,28,155,36,21,18,252,34,25,,,30,1*67"
1731841715,"$GNGSA,A,1,10,21,28,32,,,,,,,,,2.79,1.46,2.38,1*0C"
1731841715,"$GNGSA,A,1,,,,,,,,,,,,,2.79,1.46,2.38,4*00"
1731841715,"$GPGSV,2,2,07,28,83,013,37,31,,,22,32,54,078,32,1*68"
1731841715,"$GLGSV,1,1,04,65,18,313,23,73,39,040,38,,,,34,,,,41,1*75"
1731841716,"$GNGSA,A,3,10,21,28,32,,,,,,,,,2.79,1.46,2.38,1*0E"
1731841716,"$GNGSA,A,3,,,,,,,,,,,,,2.79,1.46,2.38,4*02"
1731841717,"$GLGSV,2,2,05,,,,34,1*7A"
1731841717,"$GAGSV,1,1,00,7*73"
1731841718,"$GLGSV,2,2,05,,,,33,1*7D"
1731841718,"$GAGSV,1,1,00,7*73"
1731841718,"$GNGSA,A,3,10,21,28,32,,,,,,,,,2.79,1.46,2.38,1*0E"
1731841718,"$GNGSA,A,3,,,,,,,,,,,,,2.79,1.46,2.38,3*05"
1731841719,"$GNGLL,4149.22882,N,08622.19315,W,162529.00,A,A*65"
1731841719,"$GNGSA,A,3,10,21,28,32,,,,,,,,,2.79,1.46,2.38,1*0E"
1731841720,"$GNGSA,A,3,,,,,,,,,,,,,2.79,1.46,2.38,3*05"
1731841720,"$GPGSV,2,2,07,28,83,013,36,31,,,17,32,54,078,31,1*6C"
1731841720,"$GLGSV,2,2,06,,,,33,,,,40,1*7A"
1731841720,"$GAGSV,1,1,01,05,,,34,7*70"
1731841720,"$GNVTG,,T,,M,0.057,N,0.105,K,A*3B"
1731841720,"$GNGSA,A,3,25,10,21,28,32,,,,,,,,2.51,1.33,2.13,1*08"
1731841721,"$GLGSV,2,1,06,65,18,313,13,73,39,040,39,,,,33,,,,40,1*70"
1731841721,"$GNGGA,162532.00,4149.22831,N,08622.19329,W,1,06,1.33,214.7,M,-34.0,M,,*70"
1731841722,"$GNGSA,A,3,,,,,,,,,,,,,2.51,1.33,2.13,3*04"
1731841724,"$GNGGA,162534.00,4149.22815,N,08622.19344,W,1,06,1.33,215.2,M,-34.0,M,,*7F"
1731841724,"$GNGSA,A,3,,,,,,,,,,,,,2.51,1.33,2.12,3*05"
1731841724,"$GLGSV,2,1,06,65,18,313,13,73,39,040,39,,,,32,,,,40,1*71"
1731841725,"$GNGSA,A,3,25,10,21,28,32,,,,,,,,2.51,1.33,2.12,1*09"
1731841726,"$GNGLL,4149.22795,N,08622.19359,W,162535.00,A,A*69"
1731841726,"$GPGSV,2,2,07,28,83,013,36,31,,,30,32,54,078,33,1*6B"
1731841727,"$GBGSV,1,1,01,22,,,34,1*70"
1731841727,"$GNGLL,4149.22785,N,08622.19365,W,162536.00,A,A*64"
1731841727,"$GNGGA,162537.00,4149.22780,N,08622.19367,W,1,06,1.33,216.2,M,-34.0,M,,*7D"
1731841728,"$GNGSA,A,3,,,,,,,,,,,,,2.51,1.33,2.12,4*02"
1731841728,"$GLGSV,2,1,06,65,18,313,17,73,39,040,39,,,,33,,,,40,1*74"
1731841729,"$GNGSA,A,3,25,10,21,28,32,,,,,,,,2.51,1.33,2.12,1*09"
1731841729,"$GNGSA,A,3,,,,,,,,,,,,,2.51,1.33,2.12,4*02"
1731841730,"$GPGSV,2,2,07,28,83,013,36,31,,,28,32,54,078,35,1*64"
1731841731,"$GNGSA,A,3,25,10,21,28,32,,,,,,,,2.19,1.30,1.77,1*06"
1731841731,"$GNGSA,A,3,,,,,,,,,,,,,2.19,1.30,1.77,4*0D"
1731841731,"$GPGSV,2,2,07,28,83,013,36,31,,,28,32,54,078,33,1*62"
1731841732,"$GNGSA,A,3,74,73,,,,,,,,,,,2.19,1.30,1.77,2*0C"
                                                                                                                                                                                                                                                                                                                                                                                                                                 1731841758,"$GNGSA,A,3,03,26,28,31,32,,,,,,,,2.69,1.29,2.36,1*0F"
1731841758,"$GLGSV,1,1,04,73,19,034,34,75,55,198,38,,,,33,,,,38,1*72"
1731841758,"$GAGSV,1,1,00,7*73"
1731841759,"$GNVTG,,T,,M,0.193,N,0.357,K,A*37"
1731841759,"$GNGSA,A,3,03,26,28,31,32,,,,,,,,2.69,1.29,2.36,1*0F"
1731841766,"$GNGSA,A,3,73,75,74,,,,,,,,,,2.38,1.21,2.06,2*08"
1731841767,"$GNGSA,A,3,03,26,28,31,32,,,,,,,,2.38,1.21,2.06,1*00"
1731841768,"$GNGSA,A,3,03,26,28,31,32,,,,,,,,2.38,1.21,2.06,1*00"
1731841768,"$GNGSA,A,3,,,,,,,,,,,,,2.38,1.21,2.06,3*0C"
1731841768,"$GNGSA,A,3,,,,,,,,,,,,,2.38,1.21,2.06,4*0B"
1731841768,"$GPGSV,2,2,08,29,04,085,,31,76,275,35,32,40,099,35,44,33,222,32,1*6B"
1731841775,"$GNGSA,A,3,73,75,74,,,,,,,,,,2.38,1.21,2.06,2*08"
1731841775,"$GNGSA,A,3,,,,,,,,,,,,,2.38,1.21,2.06,4*0B"
1731841775,"$GPGSV,2,1,07,03,39,308,31,25,,,28,26,45,170,34,28,64,042,32,1*56"
1731841776,"$GNGGA,170825.00,4149.23759,N,08622.17647,W,1,08,1.21,220.7,M,-34.0,M,,*71"
1731841776,"$GNGSA,A,3,73,75,74,,,,,,,,,,2.38,1.21,2.06,2*08"
1731841776,"$GNGSA,A,3,,,,,,,,,,,,,2.38,1.21,2.06,3*0C"
1731841776,"$GNGSA,A,3,,,,,,,,,,,,,2.38,1.21,2.06,4*0B"
1731841776,"$GPGSV,2,1,07,03,39,308,24,25,,,28,26,45,170,34,28,64,042,33,1*53"
1731841777,"$GLGSV,2,2,06,75,55,198,37,,,,38,1*43"
1731841777,"$GBGSV,1,1,00,1*76"
1731841777,"$GNGLL,4149.23759,N,08622.17647,W,170825.00,A,A*63"
1731841778,"$GBGSV,1,1,00,1*76"
1731841778,"$GNGLL,4149.23758,N,08622.17629,W,170826.00,A,A*69"
1731841779,"$GNGSA,A,3,03,26,28,31,32,,,,,,,,2.38,1.21,2.06,1*00"
1731841782,"$GNGSA,A,3,73,75,74,,,,,,,,,,2.38,1.21,2.06,2*08"
1731841782,"$GPGSV,2,2,07,29,04,085,,31,76,276,35,32,40,099,34,1*55"
1731841783,"$GNGSA,A,3,73,75,74,,,,,,,,,,2.38,1.21,2.06,2*08"
1731841783,"$GPGSV,2,2,07,29,04,085,,31,76,276,34,32,40,099,33,1*53"
1731841783,"$GLGSV,2,2,06,75,55,198,37,,,,36,1*4D"
1731841783,"$GAGSV,1,1,01,05,,,32,7*76"
1731841784,"$GNGLL,4149.23753,N,08622.17599,W,170831.00,A,A*6C"
1731841784,"$GNGGA,170832.00,4149.23758,N,08622.17603,W,1,08,1.21,219.7,M,-34.0,M,,*7C"
1731841784,"$GNGSA,A,3,,,,,,,,,,,,,2.38,1.21,2.06,4*0B"
1731841785,"$GNGGA,170833.00,4149.23763,N,08622.17620,W,1,08,1.21,219.1,M,-34.0,M,,*72"
1731841787,"$GNGSA,A,3,03,26,28,31,32,,,,,,,,2.38,1.21,2.06,1*00"
1731841787,"$GPGSV,2,1,08,03,39,308,25,25,,,31,26,45,170,35,28,64,042,32,1*55"
1731841788,"$GBGSV,1,1,00,1*76"
1731841788,"$GNGLL,4149.23764,N,08622.17625,W,170835.00,A,A*68"
1731841788,"$GNVTG,,T,,M,0.189,N,0.350,K,A*3B"
1731841789,"$GNGSA,A,3,03,26,28,31,32,,,,,,,,2.38,1.21,2.06,1*00"
1731841789,"$GNGSA,A,3,73,75,74,,,,,,,,,,2.38,1.21,2.06,2*08"
1731841789,"$GNGSA,A,3,,,,,,,,,,,,,2.38,1.21,2.06,4*0B"
1731841793,"$GNGSA,A,3,73,75,74,,,,,,,,,,2.30,1.16,1.98,2*00"
1731841795,"$GNGGA,170843.00,4149.23775,N,08622.17608,W,1,09,1.16,218.5,M,-34.0,M,,*78"
1731841796,"$GNGSA,A,3,03,26,28,31,32,,,,,,,,2.30,1.16,1.98,1*08"
1731841796,"$GNGSA,A,3,73,75,74,,,,,,,,,,2.30,1.16,1.98,2*00"
1731841796,"$GNGSA,A,3,05,,,,,,,,,,,,2.30,1.16,1.98,3*01"
1731841797,"$GNRMC,170845.00,A,4149.23782,N,08622.17611,W,0.137,,171124,,,A,V*06"
1731841798,"$GNGSA,A,3,,,,,,,,,,,,,2.30,1.16,1.98,4*03"
1731841798,"$GPGSV,3,3,09,44,33,222,31,1*5D"
1731841798,"$GNGLL,4149.23782,N,08622.17611,W,170845.00,A,A*60"
1731841799,"$GNGSA,A,3,03,26,28,31,32,,,,,,,,2.30,1.16,1.98,1*08"
1731841805,"$GNGSA,A,3,73,75,74,,,,,,,,,,2.30,1.16,1.98,2*00"
1731841805,"$GPGSV,3,3,09,44,33,222,33,1*5F"
1731841806,"$GNGSA,A,3,73,75,74,,,,,,,,,,2.19,1.14,1.87,2*07"
1731841807,"$GNVTG,,T,,M,0.246,N,0.455,K,A*39"
1731841808,"$GNGSA,A,3,03,25,26,28,31,32,,,,,,,2.19,1.14,1.87,1*08"
1731841808,"$GPGSV,3,1,09,03,40,308,33,09,,,10,25,24,047,30,26,46,170,34,1*5D"
1731841808,"$GLGSV,2,2,07,75,55,198,38,76,00,208,,,,,39,1*77"
1731841811,"$GNGSA,A,3,,,,,,,,,,,,,2.19,1.14,1.87,4*04"
1731841811,"$GAGSV,1,1,01,05,56,085,33,7*49"
1731841811,"$GBGSV,1,1,00,1*76"
1731841812,"$GNGGA,170858.00,4149.23801,N,08622.17649,W,1,10,1.14,217.3,M,-34.0,M,,*78"
1731841812,"$GNGSA,A,3,05,,,,,,,,,,,,2.19,1.14,1.87,3*06"
1731841812,"$GPGSV,2,1,08,03,40,308,31,25,24,047,29,26,46,170,34,28,64,042,34,1*66"
1731841813,"$GLGSV,2,2,07,75,55,198,38,76,00,208,,,,,38,1*76"
1731841814,"$GNVTG,,T,,M,0.083,N,0.154,K,A*36"
1731841814,"$GNGSA,A,3,03,25,26,28,31,32,,,,,,,2.19,1.14,1.87,1*08"
1731841814,"$GNGSA,A,3,05,,,,,,,,,,,,2.19,1.14,1.87,3*06"
1731841814,"$GNGSA,A,3,,,,,,,,,,,,,2.19,1.14,1.87,4*04"
1731841814,"$GPGSV,2,2,08,29,04,085,,31,76,277,36,32,40,099,32,44,33,222,30,1*6F"
1731841815,"$GNVTG,,T,,M,0.050,N,0.093,K,A*32"
1731841816,"$GLGSV,2,2,07,75,55,198,38,76,00,208,,,,,38,1*76"
1731841816,"$GAGSV,1,1,01,05,56,085,35,7*4F"
1731841816,"$GBGSV,1,1,00,1*76"
1731841816,"$GNGSA,A,3,,,,,,,,,,,,,2.19,1.14,1.87,4*04"
1731841817,"$GLGSV,2,2,07,75,55,198,40,76,00,208,,,,,38,1*79"
1731841817,"$GBGSV,1,1,00,1*76"
1731841817,"$GNGLL,4149.23804,N,08622.17641,W,170902.00,A,A*66"
1731841817,"$GNGSA,A,3,03,25,26,28,31,32,,,,,,,2.19,1.14,1.87,1*08"
1731841818,"$GLGSV,2,2,07,75,55,198,40,76,00,208,,,,,38,1*79"
1731841818,"$GBGSV,1,1,00,1*76"
1731841818,"$GNGLL,4149.23810,N,08622.17645,W,170903.00,A,A*66"
1731841818,"$GNVTG,,T,,M,0.038,N,0.071,K,A*30"
1731841819,"$GNGSA,A,3,05,,,,,,,,,,,,2.19,1.14,1.87,3*06"
1731841834,"$GPGSV,2,1,08,03,40,308,32,25,24,047,31,26,46,170,37,28,64,042,36,1*6D"
1731841842,"$GNVTG,,T,,M,0.311,N,0.577,K,A*3B"
1731841842,"$GNGSA,A,3,03,25,26,28,31,32,,,,,,,2.06,1.13,1.73,1*0A"
1731841843,"$GNVTG,,T,,M,0.324,N,0.600,K,A*3E"
1731841843,"$GNGSA,A,3,03,25,26,28,31,32,,,,,,,2.06,1.13,1.73,1*0A"
1731841844,"$GLGSV,3,1,09,71,25,123,29,72,72,080,30,73,18,034,36,74,63,045,35,1*7C"
1731841850,"$GPGSV,3,3,09,44,33,222,35,1*59"
1731841851,"$GNVTG,,T,,M,0.136,N,0.252,K,A*3C"
1731841851,"$GNGSA,A,3,03,25,26,28,31,32,,,,,,,2.07,1.13,1.73,1*0B"
1731841852,"$GBGSV,1,1,02,16,,,19,22,,,22,1*7B"
1731841852,"$GNGLL,4149.23855,N,08622.17594,W,170939.00,A,A*61"
1731841853,"$GNGSA,A,3,05,,,,,,,,,,,,2.07,1.13,1.73,3*05"
1731841853,"$GPGSV,3,1,09,02,,,27,03,40,308,31,25,23,046,31,26,46,170,35,1*56"
1731841853,"$GLGSV,3,1,09,71,25,123,30,72,72,080,30,73,18,034,37,74,63,045,35,1*75"
1731841854,"$GNGGA,170941.00,4149.23849,N,08622.17591,W,1,11,1.13,217.5,M,-34.0,M,,*7B"
1731841856,"$GNGSA,A,3,73,75,74,72,,,,,,,,,2.07,1.13,1.73,2*01"
1731841857,"$GPGSV,3,3,10,32,39,099,33,44,33,222,33,1*6C"
1731841857,"$GLGSV,3,1,09,71,25,123,27,72,72,080,30,73,18,034,37,74,63,045,36,1*70"
1731841857,"$GNVTG,,T,,M,0.163,N,0.302,K,A*38"
1731841858,"$GLGSV,3,1,09,71,25,123,,72,72,080,30,73,18,034,37,74,63,045,36,1*75"
1731841858,"$GAGSV,1,1,01,05,56,085,34,7*4E"
1731841858,"$GBGSV,1,1,01,22,,,07,1*70"
1731841859,"$GNGSA,A,3,73,75,74,72,,,,,,,,,2.07,1.13,1.73,2*01"
1731841859,"$GNGSA,A,3,,,,,,,,,,,,,2.07,1.13,1.73,4*07"
1731841860,"$GLGSV,3,1,09,71,25,123,,72,72,080,30,73,18,034,37,74,63,045,36,1*75"
1731841860,"$GNVTG,,T,,M,0.401,N,0.743,K,A*38"
1731841860,"$GNGSA,A,3,03,25,26,28,31,32,,,,,,,2.07,1.13,1.73,1*0B"
1731841861,"$GLGSV,3,3,09,,,,38,1*7A"
1731841861,"$GAGSV,1,1,01,05,56,085,34,7*4E"
1731841862,"$GNGSA,A,3,05,,,,,,,,,,,,2.07,1.13,1.73,3*05"
1731841863,"$GLGSV,3,1,09,71,25,123,,72,72,080,31,73,18,034,37,74,63,045,36,1*74"
1731841863,"$GBGSV,1,1,01,22,,,07,1*70"
1731841863,"$GNGLL,4149.23845,N,08622.17571,W,170949.00,A,A*6C"
1731841863,"$GNVTG,,T,,M,0.178,N,0.330,K,A*33"
1731841863,"$GNGSA,A,3,05,,,,,,,,,,,,2.07,1.13,1.73,3*05"
1731841864,"$GBGSV,1,1,00,1*76"
1731841864,"$GNGLL,4149.23851,N,08622.17566,W,170950.00,A,A*67"
1731841868,"$GPGSV,3,3,10,32,39,099,36,44,33,222,35,1*6F"
1731841868,"$GLGSV,3,2,09,75,56,198,39,76,00,208,,81,06,327,,82,00,009,07,1*7D"
1731841869,"$GNGSA,A,3,,,,,,,,,,,,,2.07,1.13,1.73,4*07"
1731841872,"$GNGLL,4149.23883,N,08622.17571,W,170958.00,A,A*66"
1731841874,"$GNGLL,4149.23879,N,08622.17564,W,170959.00,A,A*66"
1731841879,"$GNGSA,A,3,,,,,,,,,,,,,1.65,1.08,1.24,4*08"
1731841880,"$GNGLL,4149.23871,N,08622.17537,W,171008.00,A,A*64"
1731841880,"$GNVTG,,T,,M,0.288,N,0.534,K,A*3D"
1731841880,"$GNGSA,A,3,73,75,74,72,,,,,,,,,1.65,1.08,1.24,2*0E"
1731841881,"$GLGSV,3,2,10,75,56,199,38,76,00,208,,81,06,326,,82,00,009,,1*73"
1731841882,"$GNGSA,A,3,05,,,,,,,,,,,,1.54,0.97,1.20,3*0B"
1731841882,"$GLGSV,3,1,09,71,25,123,34,72,71,081,29,73,18,034,40,74,63,044,38,1*77"
1731841882,"$GLGSV,3,3,09,88,01,278,,1*4D"
1731841883,"$GPGSV,3,3,10,32,39,099,34,44,33,222,34,1*6C"
1731841883,"$GLGSV,3,1,09,71,25,123,36,72,71,081,32,73,18,034,39,74,63,044,37,1*7E"
1731841884,"$GLGSV,3,2,09,75,56,199,39,76,00,208,,81,06,326,,82,00,009,,1*7A"
1731841884,"$GLGSV,3,3,09,88,01,278,,1*4D"
1731841884,"$GBGSV,1,1,01,22,,,37,1*73"
1731841884,"$GNGLL,4149.23868,N,08622.17525,W,171011.00,A,A*67"
1731841884,"$GNGGA,171012.00,4149.23869,N,08622.17522,W,1,12,0.97,219.4,M,-34.0,M,,*7E"
1731841884,"$GNGSA,A,3,05,,,,,,,,,,,,1.54,0.97,1.20,3*0B"
1731841884,"$GPGSV,3,1,10,02,09,254,21,03,40,308,32,10,08,159,,25,23,046,27,1*64"
1731841887,"$GNGSA,A,3,,,,,,,,,,,,,1.54,0.97,1.20,4*09"
1731841889,"$GNGGA,171017.00,4149.23860,N,08622.17513,W,1,12,0.97,219.6,M,-34.0,M,,*72"
1731841889,"$GNGSA,A,3,73,75,74,72,,,,,,,,,1.54,0.97,1.20,2*0F"
1731841889,"$GPGSV,3,1,10,02,09,254,30,03,40,308,27,10,08,159,,25,23,046,21,1*66"
1731841889,"$GBGSV,1,1,01,22,,,30,1*74"
1731841890,"$GNVTG,,T,,M,0.301,N,0.557,K,A*38"
1731841890,"$GNGSA,A,3,03,25,26,28,31,02,32,,,,,,1.54,0.97,1.20,1*07"
1731841890,"$GNGSA,A,3,05,,,,,,,,,,,,1.54,0.97,1.20,3*0B"
1731841890,"$GNGSA,A,3,,,,,,,,,,,,,1.54,0.97,1.20,4*09"
1731841890,"$GPGSV,3,3,10,32,39,099,27,44,33,222,30,1*6A"
1731841890,"$GBGSV,1,1,01,22,,,30,1*74"
1731841892,"$GPGSV,3,3,10,32,39,099,27,44,33,222,30,1*6A"
1731841892,"$GLGSV,3,1,10,65,38,324,37,71,25,123,24,72,71,081,27,73,18,034,41,1*75"
1731841892,"$GLGSV,3,3,10,82,00,009,,88,01,278,,1*76"
1731841892,"$GNGLL,4149.23843,N,08622.17507,W,171019.00,A,A*66"
1731841892,"$GNVTG,,T,,M,0.272,N,0.504,K,A*3B"
1731841894,"$GLGSV,3,1,10,65,38,324,37,71,25,123,26,72,71,081,28,73,18,034,40,1*79"
1731841894,"$GNVTG,,T,,M,0.050,N,0.093,K,A*32"
1731841895,"$GPGSV,3,3,10,32,39,099,28,44,33,222,28,1*6C"
1731841895,"$GLGSV,3,1,10,65,38,324,36,71,25,123,26,72,71,081,28,73,18,034,41,1*79"
1731841896,"$GBGSV,1,1,01,22,,,32,1*76"
1731841896,"$GNGLL,4149.23836,N,08622.17519,W,171021.00,A,A*60"
1731841896,"$GNGSA,A,3,73,75,74,72,,,,,,,,,1.54,0.97,1.20,2*0F"
1731841897,"$GNGLL,4149.23840,N,08622.17518,W,171022.00,A,A*63"
1731841898,"$GNGSA,A,3,,,,,,,,,,,,,1.54,0.97,1.20,4*09"
1731841899,"$GNGLL,4149.23824,N,08622.17501,W,171023.00,A,A*68"
1731841899,"$GNGGA,171024.00,4149.23808,N,08622.17477,W,1,12,0.97,220.8,M,-34.0,M,,*7B"
1731841900,"$GNGSA,A,3,05,,,,,,,,,,,,1.54,0.97,1.20,3*0B"
1731841900,"$GPGSV,3,1,10,02,09,254,27,03,40,307,32,10,07,159,,25,23,046,21,1*64"
1731841900,"$GPGSV,3,3,10,32,39,099,31,44,33,222,33,1*6E"
1731841900,"$GBGSV,1,1,01,22,,,34,1*70"
1731841901,"$GNGSA,A,3,73,75,74,72,,,,,,,,,1.54,0.97,1.20,2*0F"
1731841901,"$GLGSV,3,3,10,82,00,009,,88,01,278,,1*76"
1731841901,"$GNGLL,4149.23807,N,08622.17453,W,171025.00,A,A*69"
1731841902,"$GNGSA,A,3,73,75,74,72,,,,,,,,,1.54,0.97,1.20,2*0F"
1731841903,"$GLGSV,3,3,10,82,00,009,,88,01,278,,1*76"
1731841903,"$GAGSV,1,1,03,05,56,085,33,13,13,315,,24,,,32,7*7B"
1731841903,"$GNGSA,A,3,05,,,,,,,,,,,,1.54,0.97,1.20,3*0B"
1731841904,"$GPGSV,3,3,10,32,39,099,35,44,33,222,34,1*6D"
1731841904,"$GLGSV,3,1,10,65,38,324,35,71,25,123,32,72,71,081,32,73,18,034,37,1*75"
1731841904,"$GNGLL,4149.23780,N,08622.17451,W,171027.00,A,A*69"
1731841909,"$GNGGA,171037.00,4149.23750,N,08622.17472,W,1,11,0.98,222.5,M,-34.0,M,,*7D"
1731841909,"$GPGSV,3,3,10,32,39,100,25,44,33,222,36,1*6F"
1731841909,"$GLGSV,3,1,10,65,38,324,32,71,25,123,26,72,71,081,28,73,18,034,38,1*73"
1731841910,"$GNGLL,4149.23750,N,08622.17472,W,171037.00,A,A*64"
1731841911,"$GNGSA,A,3,05,,,,,,,,,,,,1.58,0.98,1.25,3*0D"
1731841911,"$GPGSV,3,3,10,32,39,100,24,44,33,222,34,1*6C"
1731841911,"$GLGSV,3,2,10,74,63,044,36,75,56,199,38,76,00,208,,81,06,326,,1*73"
1731841924,"$GLGSV,3,3,10,82,00,009,,88,01,278,,1*76"
1731841924,"$GAGSV,1,1,04,03,,,36,05,56,086,36,13,13,314,,24,,,34,7*7B"
1731841925,"$GPGSV,3,3,09,32,39,100,20,1*55"
1731841926,"$GNVTG,,T,,M,0.068,N,0.126,K,A*36"
1731841926,"$GNGSA,A,3,03,25,26,28,31,02,32,,,,,,1.44,0.88,1.14,1*0F"
1731841926,"$GNGSA,A,3,05,,,,,,,,,,,,1.44,0.88,1.14,3*03"
1731841926,"$GNGSA,A,3,22,,,,,,,,,,,,1.44,0.88,1.14,4*01"
1731841927,"$GPGSV,3,1,09,02,09,254,36,03,40,307,37,10,07,159,13,25,23,046,21,1*6B"
1731841927,"$GBGSV,1,1,02,22,79,145,40,36,,,38,1*40"
1731841928,"$GNGSA,A,3,05,,,,,,,,,,,,1.50,0.97,1.14,3*08"
1731841929,"$GAGSV,1,1,04,03,,,40,05,56,086,37,13,13,314,,24,,,35,7*7A"
1731841929,"$GNGLL,4149.23750,N,08622.17569,W,171054.00,A,A*6A"
1731841929,"$GNGSA,A,3,22,,,,,,,,,,,,1.50,0.97,1.14,4*0A"
1731841929,"$GPGSV,3,2,10,26,46,170,44,28,63,042,37,29,04,084,,31,77,280,43,1*65"
1731841930,"$GLGSV,3,3,10,82,00,009,,88,01,278,,1*76"
1731841930,"$GAGSV,1,1,04,03,,,38,05,56,086,36,13,13,314,,24,,,36,7*77"
1731841930,"$GNGGA,171056.00,4149.23760,N,08622.17610,W,1,12,0.88,222.4,M,-34.0,M,,*7C"
1731841930,"$GNGSA,A,3,73,75,74,65,72,,,,,,,,1.44,0.88,1.14,2*04"
1731841930,"$GNGSA,A,3,22,,,,,,,,,,,,1.44,0.88,1.14,4*01"
1731841930,"$GPGSV,3,1,10,02,09,254,34,03,40,307,38,10,07,159,,25,23,046,28,1*65"
1731841931,"$GPGSV,3,2,10,26,46,170,42,28,63,042,38,29,04,084,,31,77,280,43,1*6C"
1731841931,"$GPGSV,3,3,10,32,39,100,34,44,33,222,40,1*6E"
1731841931,"$GLGSV,3,2,10,74,63,044,38,75,56,199,45,76,00,208,,81,06,326,,1*77"
1731841931,"$GLGSV,3,3,10,82,00,009,,88,01,278,,1*76"
1731841931,"$GAGSV,1,1,04,03,,,40,05,56,086,37,13,13,314,,24,,,37,7*78"
1731841931,"$GNGLL,4149.23760,N,08622.17610,W,171056.00,A,A*66"
1731841932,"$GNGSA,A,3,22,,,,,,,,,,,,1.44,0.88,1.14,4*01"
1731841932,"$GPGSV,3,2,10,26,46,170,41,28,63,042,37,29,04,084,,31,77,280,42,1*61"
1731841932,"$GLGSV,3,1,10,65,38,324,37,71,25,123,,72,71,083,33,73,18,034,34,1*76"
1731841933,"$GNGLL,4149.23761,N,08622.17609,W,171057.00,A,A*6E"
1731841933,"$GNVTG,,T,,M,0.491,N,0.909,K,A*31"
1731841934,"$GPGSV,3,1,10,02,09,254,35,03,40,307,37,10,07,159,,25,23,046,25,1*66"
1731841934,"$GLGSV,3,3,10,82,00,009,,88,01,278,,1*76"
1731841934,"$GBGSV,1,1,02,22,79,145,41,36,,,37,1*4E"
1731841936,"$GLGSV,3,3,10,82,00,009,,88,01,278,,1*76"
1731841936,"$GAGSV,1,1,04,03,,,40,05,56,086,36,13,13,314,27,24,,,36,7*7D"
1731841937,"$GNGLL,4149.23782,N,08622.17602,W,171059.00,A,A*66"
1731841937,"$GNVTG,238.25,T,,M,0.508,N,0.941,K,A*2C"
1731841937,"$GNGSA,A,3,75,74,65,72,,,,,,,,,1.57,0.93,1.26,2*09"
1731841938,"$GNGLL,4149.23784,N,08622.17614,W,171100.00,A,A*6A"
1731841938,"$GNVTG,,T,,M,0.141,N,0.260,K,A*3D"
1731841939,"$GPGSV,3,1,10,02,09,254,33,03,40,307,34,10,07,159,17,25,23,046,26,1*66"
1731841939,"$GLGSV,3,1,10,65,38,324,34,71,24,123,,72,71,083,34,73,18,034,33,1*74"
1731841939,"$GLGSV,3,3,10,82,00,009,,88,01,278,,1*76"
1731841940,"$GNRMC,171102.00,A,4149.23786,N,08622.17626,W,0.045,,171124,,,A,V*09"
1731841940,"$GNGSA,A,3,75,74,65,72,73,,,,,,,,1.44,0.88,1.14,2*04"
1731841941,"$GLGSV,3,3,10,82,00,009,,88,01,278,,1*76"
1731841941,"$GNGLL,4149.23786,N,08622.17626,W,171102.00,A,A*6B"
1731841941,"$GNVTG,,T,,M,0.039,N,0.072,K,A*32"
1731841942,"$GNGSA,A,3,22,,,,,,,,,,,,1.44,0.88,1.14,4*01"
1731841942,"$GPGSV,3,2,10,26,46,170,42,28,63,042,35,29,04,084,,31,77,280,41,1*63"
1731841942,"$GLGSV,3,1,10,65,38,324,38,71,24,123,,72,71,083,37,73,18,034,33,1*7B"
1731841942,"$GBGSV,1,1,02,22,79,145,40,36,,,36,1*4E"
1731841943,"$GNGSA,A,3,22,,,,,,,,,,,,1.57,0.93,1.26,4*08"
1731841944,"$GNVTG,,T,,M,0.075,N,0.140,K,A*3A"
1731841944,"$GNGSA,A,3,03,25,26,28,31,02,32,,,,,,1.57,0.93,1.26,1*06"
1731841945,"$GNGSA,A,3,05,,,,,,,,,,,,1.57,0.93,1.26,3*0A"
1731841945,"$GNGSA,A,3,22,,,,,,,,,,,,1.57,0.93,1.26,4*08"
1731841945,"$GPGSV,3,2,10,26,46,170,42,28,63,042,39,29,04,084,,31,77,280,41,1*6F"
1731841945,"$GNRMC,171106.00,A,4149.23808,N,08622.17639,W,0.143,,171124,,,A,V*0D"
1731841947,"$GNRMC,171107.00,A,4149.23810,N,08622.17641,W,0.027,,171124,,,A,V*09"
1731841947,"$GNGGA,171107.00,4149.23810,N,08622.17641,W,1,12,0.88,222.1,M,-34.0,M,,*70"
1731841947,"$GNGSA,A,3,22,,,,,,,,,,,,1.44,0.88,1.14,4*01"
1731841948,"$GLGSV,3,1,10,65,38,324,37,71,24,123,,72,71,083,34,73,18,034,41,1*72"
1731841948,"$GLGSV,3,3,10,82,00,009,,88,01,278,,1*76"
1731841948,"$GBGSV,1,1,02,22,79,145,43,36,,,41,1*4D"
1731841948,"$GNGLL,4149.23810,N,08622.17641,W,171107.00,A,A*6F"
1731841948,"$GNGSA,A,3,22,,,,,,,,,,,,1.44,0.88,1.14,4*01"
1731841949,"$GPGSV,3,2,10,26,46,170,41,28,63,042,39,29,04,084,,31,77,280,41,1*6C"
1731841949,"$GLGSV,3,3,10,82,00,009,,88,01,278,,1*76"
1731841950,"$GNGSA,A,3,05,,,,,,,,,,,,1.44,0.88,1.14,3*03"
1731841951,"$GAGSV,1,1,04,03,,,40,05,56,086,40,13,13,314,30,24,,,38,7*74"
1731841951,"$GNGGA,171110.00,4149.23812,N,08622.17600,W,1,12,0.87,221.5,M,-34.0,M,,*79"
1731841952,"$GPGSV,3,1,10,02,09,254,34,03,40,307,39,10,07,159,22,25,23,046,34,1*69"
1731841952,"$GPGSV,3,3,10,32,39,100,41,44,33,222,38,1*63"
1731841952,"$GLGSV,3,2,10,74,62,044,37,75,57,199,41,76,00,208,,81,06,326,,1*7C"
1731841953,"$GPGSV,3,1,10,02,09,254,36,03,40,307,40,10,07,159,20,25,23,046,34,1*67"
1731841953,"$GNRMC,171112.00,A,4149.23815,N,08622.17596,W,0.034,,171124,,,A,V*03"
1731841953,"$GNGSA,A,3,75,74,65,72,73,,,,,,,,1.37,0.83,1.09,2*07"
1731841954,"$GNGSA,A,3,22,,,,,,,,,,,,1.37,0.83,1.09,4*02"
1731841954,"$GPGSV,3,2,10,26,46,170,41,28,63,042,40,29,04,084,,31,77,280,42,1*61"
1731841954,"$GPGSV,3,3,10,32,39,100,40,44,33,222,38,1*62"
1731841955,"$GNGSA,A,3,75,74,65,72,73,,,,,,,,1.37,0.83,1.09,2*07"
1731841955,"$GNGSA,A,3,22,,,,,,,,,,,,1.37,0.83,1.09,4*02"
1731841955,"$GNRMC,171114.00,A,4149.23811,N,08622.17596,W,0.067,,171124,,,A,V*07"
1731841955,"$GNGSA,A,3,03,25,26,28,31,02,32,,,,,,1.37,0.83,1.09,1*0C"
1731841956,"$GPGSV,3,1,10,02,09,254,31,03,40,307,39,10,07,159,15,25,23,046,35,1*69"
1731841956,"$GNVTG,,T,,M,0.113,N,0.209,K,A*35"
1731841957,"$GNGSA,A,3,22,,,,,,,,,,,,1.37,0.83,1.09,4*02"
1731841957,"$GPGSV,3,2,10,26,46,170,41,28,63,042,39,29,04,084,,31,77,280,41,1*6C"
1731841958,"$GNVTG,,T,,M,0.032,N,0.060,K,A*3A"
1731841958,"$GPGSV,3,1,10,02,09,254,29,03,40,307,38,10,07,159,16,25,23,046,33,1*64"
1731841958,"$GPGSV,3,3,10,32,39,100,36,44,33,222,35,1*6E"
1731841959,"$GNVTG,,T,,M,0.094,N,0.175,K,A*33"
1731841959,"$GNGSA,A,3,03,25,26,28,31,02,32,,,,,,1.37,0.83,1.09,1*0C"
1731841959,"$GNGSA,A,3,22,,,,,,,,,,,,1.37,0.83,1.09,4*02"
1731841959,"$GLGSV,3,1,10,65,38,324,34,71,24,123,33,72,71,083,33,73,18,034,42,1*75"
1731841960,"$GNVTG,,T,,M,0.084,N,0.155,K,A*30"
1731841960,"$GNGSA,A,3,75,74,65,72,73,,,,,,,,1.37,0.83,1.09,2*07"
1731841960,"$GNGSA,A,3,22,,,,,,,,,,,,1.37,0.83,1.09,4*02"
1731841961,"$GNVTG,,T,,M,0.081,N,0.149,K,A*38"
1731841962,"$GPGSV,3,3,10,32,39,100,40,44,33,222,38,1*62"
1731841963,"$GNVTG,,T,,M,0.152,N,0.282,K,A*33"
1731841963,"$GNGSA,A,3,05,03,24,,,,,,,,,,1.37,0.83,1.09,3*05"
1731841963,"$GNGSA,A,3,75,74,65,72,73,,,,,,,,1.37,0.83,1.09,2*07"
1731841963,"$GNGSA,A,3,22,,,,,,,,,,,,1.37,0.83,1.09,4*02"
1731841964,"$GNVTG,,T,,M,0.053,N,0.099,K,A*3B"
1731841965,"$GPGSV,3,1,10,02,09,254,35,03,41,307,39,10,07,159,12,25,23,046,34,1*6A"
1731841965,"$GNVTG,,T,,M,0.070,N,0.130,K,A*38"
1731841965,"$GNGSA,A,3,03,25,26,28,31,02,32,,,,,,1.37,0.83,1.09,1*0C"
1731841966,"$GNRMC,171124.00,A,4149.23804,N,08622.17594,W,0.111,,171124,,,A,V*02"
1731841966,"$GNVTG,,T,,M,0.111,N,0.206,K,A*38"
1731841967,"$GNGSA,A,3,03,25,26,28,31,02,32,,,,,,1.37,0.83,1.09,1*0C"
1731841967,"$GPGSV,3,1,10,02,09,254,36,03,41,307,39,10,07,159,,25,23,046,34,1*6A"
1731841967,"$GPGSV,3,3,10,32,39,100,40,44,33,222,38,1*62"
1731841968,"$GNGGA,171125.00,4149.23805,N,08622.17593,W,1,12,0.83,222.5,M,-34.0,M,,*77"
1731841968,"$GPGSV,3,1,11,02,09,254,37,03,41,307,40,10,07,159,,25,23,046,34,1*64"
1731841969,"$GPGSV,3,3,11,32,39,100,40,44,33,222,39,46,25,234,37,1*56"
1731841970,"$GNGSA,A,3,22,,,,,,,,,,,,1.37,0.83,1.09,4*02"
1731841970,"$GNRMC,171128.00,A,4149.23781,N,08622.17653,W,0.114,,171124,,,D,V*04"
1731841970,"$GNVTG,,T,,M,0.114,N,0.211,K,D*3E"
1731841971,"$GLGSV,3,3,11,82,00,009,13,88,01,278,,,,,43,1*72"
1731841972,"$GNRMC,171129.00,A,4149.23775,N,08622.17669,W,0.059,,171124,,,D,V*0F"
1731841972,"$GNVTG,,T,,M,0.059,N,0.108,K,D*3D"
1731841972,"$GNGSA,A,3,75,74,65,72,73,,,,,,,,1.32,0.79,1.06,2*08"
1731841973,"$GNGGA,171130.00,4149.23770,N,08622.17673,W,2,12,0.79,223.1,M,-34.0,M,,0000*70"
1731841974,"$GNVTG,,T,,M,0.073,N,0.135,K,D*3B"
1731841974,"$GNGGA,171131.00,4149.23764,N,08622.17676,W,2,12,0.79,223.1,M,-34.0,M,,0000*71"
1731841974,"$GNGSA,A,3,75,74,65,72,73,,,,,,,,1.32,0.79,1.06,2*08"
1731841975,"$GNGSA,A,3,75,74,65,72,73,,,,,,,,1.32,0.79,1.06,2*08"
1731841975,"$GNGSA,A,3,05,03,24,,,,,,,,,,1.32,0.79,1.06,3*0A"
1731841975,"$GPGSV,3,3,11,32,39,100,39,44,33,222,38,46,25,234,36,1*58"
1731841975,"$GNRMC,171133.00,A,4149.23755,N,08622.17673,W,0.076,,171124,,,D,V*00"
1731841975,"$GNGGA,171133.00,4149.23755,N,08622.17673,W,2,12,0.78,222.9,M,-34.0,M,,0000*7C"
1731841975,"$GNGSA,A,3,05,03,24,,,,,,,,,,1.30,0.78,1.04,3*0B"
1731841976,"$GPGSV,3,1,11,02,09,254,34,03,41,307,40,10,07,159,,25,23,046,35,1*66"
1731841976,"$GNVTG,,T,,M,0.013,N,0.024,K,D*3C"
1731841976,"$GNGSA,A,3,75,74,65,72,73,,,,,,,,1.30,0.78,1.04,2*09"
1731841977,"$GNGGA,171135.00,4149.23748,N,08622.17659,W,2,12,0.78,223.0,M,-34.0,M,,0000*76"
1731841977,"$GLGSV,3,1,11,65,38,324,37,71,24,123,37,72,71,083,35,73,18,034,43,1*74"
1731841977,"$GNGSA,A,3,75,74,65,72,73,,,,,,,,1.30,0.78,1.04,2*09"
1731841978,"$GNGSA,A,3,22,36,,,,,,,,,,,1.30,0.78,1.04,4*09"
1731841978,"$GLGSV,3,1,11,65,38,324,37,71,24,123,37,72,71,083,35,73,18,034,43,1*74"
1731841978,"$GNVTG,,T,,M,0.085,N,0.158,K,D*39"
1731841978,"$GNGSA,A,3,05,03,24,,,,,,,,,,1.20,0.71,0.96,3*09"
1731841979,"$GPGSV,3,1,11,02,09,254,35,03,41,307,40,10,07,159,,25,23,046,35,1*67"
1731841980,"$GPGSV,3,3,11,32,39,100,40,44,33,222,38,46,25,234,37,1*57"
1731841980,"$GNVTG,,T,,M,0.086,N,0.159,K,D*3B"
1731841980,"$GNGSA,A,3,05,03,24,,,,,,,,,,1.18,0.69,0.96,3*0B"
1731841981,"$GPGSV,3,3,11,32,39,100,39,44,33,222,38,46,25,234,36,1*58"
1731841981,"$GNGSA,A,3,22,21,36,,,,,,,,,,1.18,0.69,0.96,4*0A"
1731841981,"$GPGSV,3,2,11,26,47,170,40,28,63,043,39,29,04,084,,31,77,282,42,1*6D"
1731841982,"$GPGSV,3,1,11,02,09,254,35,03,41,307,39,10,07,159,,25,23,046,35,1*69"
1731841982,"$GPGSV,3,3,11,32,39,100,40,44,33,222,38,46,25,234,36,1*56"
1731841983,"$GNRMC,171142.00,A,4149.23731,N,08622.17646,W,0.064,,171124,,,D,V*01"
1731841984,"$GNVTG,,T,,M,0.053,N,0.098,K,D*3F"
1731841984,"$GNGSA,A,3,75,74,65,71,72,73,,,,,,,1.18,0.69,0.96,2*0F"
1731841984,"$GPGSV,3,1,11,02,09,254,35,03,41,307,39,10,07,159,,25,23,046,36,1*6A"
1731841985,"$GPGSV,3,3,11,32,39,100,40,44,33,222,38,46,25,234,37,1*57"
1731841986,"$GNVTG,,T,,M,0.112,N,0.207,K,D*3F"
1731841986,"$GNGSA,A,3,22,21,36,,,,,,,,,,1.18,0.69,0.96,4*0A"
1731841987,"$GLGSV,3,1,10,65,38,324,37,71,24,124,38,72,71,083,35,73,18,034,43,1*7D"
1731841992,"$GNGSA,A,3,75,74,65,71,72,73,,,,,,,1.18,0.69,0.96,2*0F"
1731841992,"$GNGSA,A,3,22,21,36,,,,,,,,,,1.18,0.69,0.96,4*0A"
1731841992,"$GPGSV,3,2,11,26,47,170,36,28,63,043,35,29,04,084,,31,77,282,37,1*62"
1731841992,"$GLGSV,3,1,11,65,39,325,33,71,24,124,32,72,71,083,32,73,18,034,37,1*76"
1731841992,"$GLGSV,3,3,11,82,00,009,,88,01,278,,,,,40,1*73"
1731841993,"$GNGLL,4149.23718,N,08622.17686,W,171159.00,A,D*6D"
1731841993,"$GNVTG,,T,,M,0.111,N,0.205,K,D*3E"
1731841993,"$GNGSA,A,3,05,03,24,,,,,,,,,,1.18,0.69,0.96,3*0B"
1731841993,"$GPGSV,3,1,11,02,09,254,30,03,41,307,34,10,07,159,,25,23,046,29,1*6C"
1731841994,"$GLGSV,3,1,11,65,39,325,33,71,24,124,32,72,71,083,32,73,18,034,39,1*78"
1731841994,"$GLGSV,3,3,11,82,00,009,,88,01,278,,,,,40,1*73"
1731841994,"$GBGSV,1,1,04,19,,,32,21,45,312,37,22,79,145,38,36,66,063,35,1*4E"
1731841995,"$GNGSA,A,3,75,74,65,71,72,73,,,,,,,1.18,0.69,0.96,2*0F"
1731841995,"$GNGSA,A,3,22,21,36,,,,,,,,,,1.18,0.69,0.96,4*0A"
1731841995,"$GLGSV,3,1,11,65,39,325,34,71,24,124,33,72,71,083,33,73,18,034,38,1*7E"
1731841996,"$GLGSV,3,3,11,82,00,009,,88,01,278,,,,,41,1*72"
1731841999,"$GNGSA,A,3,05,03,24,,,,,,,,,,1.18,0.69,0.96,3*0B"
1731842000,"$GPGSV,3,3,11,32,39,100,36,44,33,222,33,46,25,234,31,1*5B"
1731842000,"$GLGSV,3,2,11,74,62,043,36,75,57,199,41,76,00,208,,81,06,326,07,1*7C"
1731842001,"$GNGGA,171208.00,4149.23735,N,08622.17681,W,2,12,0.69,222.1,M,-34.0,M,,0000*74"
1731842001,"$GNGSA,A,3,22,21,36,,,,,,,,,,1.18,0.69,0.96,4*0A"
1731842001,"$GPGSV,3,2,11,26,47,170,36,28,63,043,35,29,04,084,,31,77,282,37,1*62"
1731842001,"$GLGSV,3,1,11,65,39,325,35,71,24,124,32,72,71,085,31,73,17,034,37,1*7A"
1731842001,"$GLGSV,3,3,11,82,00,009,,88,01,278,,,,,39,1*7D"
1731842002,"$GNGGA,171209.00,4149.23737,N,08622.17679,W,2,12,0.69,222.1,M,-34.0,M,,0000*70"
1731842015,"$GPGSV,3,1,11,02,08,253,28,03,41,307,35,10,07,159,,25,23,046,29,1*62"
1731842015,"$GPGSV,3,3,11,32,39,100,35,44,33,222,33,46,25,234,31,1*58"
1731842015,"$GLGSV,3,3,11,82,00,008,,88,00,278,,,,,38,1*7C"
1731842015,"$GAGSV,1,1,04,03,62,316,36,05,56,086,35,13,13,314,23,24,45,070,34,7*7F"
1731842016,"$GNVTG,,T,,M,0.185,N,0.342,K,D*31"
1731842016,"$GNGSA,A,3,03,25,26,28,31,02,32,44,46,,,,1.15,0.66,0.94,1*00"
1731842022,"$GNGSA,A,3,03,25,26,28,31,02,32,44,46,,,,1.14,0.66,0.93,1*06"
1731842022,"$GNGSA,A,3,05,03,24,,,,,,,,,,1.14,0.66,0.93,3*0D"
1731842023,"$GNGLL,4149.23790,N,08622.17614,W,171231.00,A,D*6B"
1731842023,"$GNVTG,,T,,M,0.082,N,0.153,K,D*35"
1731842024,"$GNGSA,A,3,22,21,36,,,,,,,,,,1.14,0.66,0.93,4*0C"
1731842024,"$GPGSV,3,2,11,26,47,170,34,28,63,043,34,29,04,084,,31,77,282,36,1*60"
1731842024,"$GLGSV,3,1,11,65,39,325,32,71,24,124,31,72,71,085,32,73,17,034,37,1*7D"
1731842025,"$GNRMC,171233.00,A,4149.23792,N,08622.17603,W,0.102,,171124,,,D,V*0D"
1731842025,"$GNGSA,A,3,19,22,21,36,,,,,,,,,1.10,0.62,0.90,4*07"
1731842033,"$GNGGA,171242.00,4149.23780,N,08622.17604,W,2,12,0.68,219.1,M,-34.0,M,,0000*70"
1731842033,"$GNGSA,A,3,75,74,65,72,73,,,,,,,,1.27,0.68,1.07,2*0D"
1731842033,"$GPGSV,3,3,11,32,38,101,27,44,33,222,30,46,25,234,26,1*5E"
1731842034,"$GLGSV,3,1,10,65,39,325,32,71,24,124,,72,71,085,19,73,17,034,34,1*74"
1731842034,"$GNGLL,4149.23780,N,08622.17604,W,171242.00,A,D*6F"
1731842034,"$GNVTG,,T,,M,0.246,N,0.456,K,D*3F"
1731842039,"$GPGSV,3,3,12,31,77,284,30,32,38,101,23,44,33,222,29,46,25,234,28,1*60"
1731842040,"$GNRMC,171247.00,A,4149.23789,N,08622.17562,W,0.246,,171124,,,D,V*03"
1731842040,"$GNGGA,171247.00,4149.23789,N,08622.17562,W,2,12,0.66,220.1,M,-34.0,M,,0000*7B"
1731842041,"$GNGSA,A,3,75,74,65,72,73,,,,,,,,1.14,0.66,0.94,2*08"
1731842041,"$GNGSA,A,3,05,03,24,,,,,,,,,,1.14,0.66,0.94,3*0A"
1731842041,"$GLGSV,3,3,10,82,00,008,06,88,00,278,,1*70"
1731842041,"$GBGSV,1,1,04,19,24,135,21,21,45,312,34,22,79,145,29,36,66,063,28,1*72"
1731842042,"$GNGGA,171248.00,4149.23795,N,08622.17560,W,2,12,0.68,220.6,M,-34.0,M,,0000*72"
1731842042,"$GNGSA,A,3,05,03,24,,,,,,,,,,1.16,0.68,0.94,3*06"
1731842042,"$GPGSV,3,1,12,02,08,253,25,03,41,306,29,10,07,159,,16,16,185,17,1*65"
1731842043,"$GPGSV,3,3,12,31,77,284,33,32,38,101,21,44,33,222,,46,25,234,30,1*63"
1731842043,"$GAGSV,1,1,04,03,62,316,31,05,56,086,22,13,13,314,22,24,45,070,22,7*78"
1731842043,"$GNGLL,4149.23795,N,08622.17560,W,171248.00,A,D*60"
1731842044,"$GPGSV,3,1,12,02,08,253,24,03,41,306,30,10,07,159,,16,16,185,25,1*6D"
1731842044,"$GLGSV,3,3,10,82,00,008,09,88,00,278,,1*7F"
1731842044,"$GAGSV,1,1,04,03,62,316,32,05,56,086,23,13,13,314,19,24,45,070,20,7*70"
1731842045,"$GNRMC,171250.00,A,4149.23792,N,08622.17558,W,0.198,,171124,,,D,V*06"
1731842045,"$GNGSA,A,3,05,03,24,,,,,,,,,,1.26,0.70,1.06,3*06"
1731842046,"$GPGSV,3,1,12,02,08,253,20,03,41,306,34,10,07,159,,16,16,185,27,1*6F"
1731842046,"$GLGSV,3,3,10,82,00,008,,88,00,278,,1*76"
1731842046,"$GAGSV,1,1,04,03,62,316,32,05,56,086,24,13,13,314,20,24,45,070,21,7*7C"
1731842046,"$GNRMC,171251.00,A,4149.23789,N,08622.17560,W,0.199,,171124,,,D,V*07"
1731842047,"$GPGSV,3,1,12,02,08,253,22,03,41,306,31,10,07,159,,16,16,185,27,1*68"
1731842048,"$GNVTG,,T,,M,0.249,N,0.461,K,D*34"
1731842048,"$GNGSA,A,3,19,22,21,36,,,,,,,,,1.10,0.62,0.90,4*07"
1731842049,"$GAGSV,1,1,04,03,63,317,30,05,56,086,21,13,13,314,20,24,45,070,22,7*78"
1731842049,"$GNGLL,4149.23783,N,08622.17567,W,171252.00,A,D*6B"
1731842049,"$GNVTG,,T,,M,0.085,N,0.158,K,D*39"
1731842049,"$GNGSA,A,3,75,74,65,71,72,73,,,,,,,1.11,0.65,0.90,2*0C"
1731842050,"$GNGSA,A,3,19,22,21,36,,,,,,,,,1.11,0.65,0.90,4*01"
1731842051,"$GNRMC,171254.00,A,4149.23780,N,08622.17571,W,0.219,,171124,,,D,V*00"
1731842051,"$GLGSV,3,1,10,65,39,325,34,71,24,124,24,72,71,085,27,73,17,034,33,1*7E"
1731842052,"$GLGSV,3,3,10,82,00,008,,88,00,278,,1*76"
1731842052,"$GNGSA,A,3,19,22,21,36,,,,,,,,,1.10,0.62,0.90,4*07"
1731842053,"$GNGGA,171256.00,4149.23789,N,08622.17566,W,2,12,0.62,221.3,M,-34.0,M,,0000*78"
1731842054,"$GNGSA,A,3,19,22,21,36,,,,,,,,,1.10,0.62,0.90,4*07"
1731842054,"$GPGSV,3,2,12,25,22,046,28,26,48,169,29,28,62,043,25,29,05,084,,1*68"
1731842054,"$GNGLL,4149.23789,N,08622.17566,W,171256.00,A,D*64"
1731842055,"$GNGSA,A,3,19,22,21,36,,,,,,,,,1.10,0.62,0.90,4*07"
1731842058,"$GNGGA,171307.00,4149.23781,N,08622.17617,W,2,12,0.62,220.2,M,-34.0,M,,0000*70"
1731842059,"$GLGSV,3,1,10,65,39,325,34,71,24,124,27,72,71,085,20,73,17,034,23,1*7B"
1731842059,"$GLGSV,3,3,10,82,00,008,,88,00,278,,1*76"
1731842059,"$GNGLL,4149.23781,N,08622.17617,W,171307.00,A,D*6C"
1731842059,"$GNRMC,171308.00,A,4149.23772,N,08622.17621,W,0.055,,171124,,,D,V*09"
1731842060,"$GNGSA,A,3,75,74,65,71,72,73,,,,,,,1.10,0.62,0.90,2*0A"
1731842060,"$GNGSA,A,3,19,22,21,36,,,,,,,,,1.10,0.62,0.90,4*07"
1731842060,"$GPGSV,3,2,12,25,22,046,21,26,48,169,30,28,62,043,26,29,05,084,,1*6A"
1731842060,"$GLGSV,3,1,10,65,39,325,33,71,24,124,29,72,71,085,19,73,17,034,30,1*7A"
1731842061,"$GNGGA,171309.00,4149.23765,N,08622.17624,W,2,12,0.62,220.2,M,-34.0,M,,0000*74"
1731842062,"$GNGSA,A,3,19,22,21,36,,,,,,,,,1.10,0.62,0.90,4*07"
1731842062,"$GPGSV,3,2,12,25,22,046,21,26,48,169,30,28,62,043,26,29,05,084,,1*6A"
1731842062,"$GNGLL,4149.23765,N,08622.17624,W,171309.00,A,D*68"
1731842063,"$GNGSA,A,3,19,22,21,36,,,,,,,,,1.10,0.62,0.90,4*07"
1731842064,"$GPGSV,3,3,12,31,77,284,33,32,38,101,22,44,33,222,35,46,25,234,34,1*62"
1731842064,"$GNRMC,171311.00,A,4149.23763,N,08622.17630,W,0.197,,171124,,,D,V*0E"
1731842064,"$GNGSA,A,3,03,25,26,28,31,32,44,46,02,,,,1.09,0.62,0.90,1*0D"
1731842068,"$GNGLL,4149.23763,N,08622.17630,W,171311.00,A,D*62"
1731842068,"$GNGSA,A,3,19,22,21,36,,,,,,,,,1.09,0.62,0.90,4*0F"
1731842070,"$GNGSA,A,3,03,25,26,28,31,32,44,46,02,,,,1.09,0.62,0.90,1*0D"
1731842071,"$GBGSV,1,1,04,19,23,136,25,21,45,312,35,22,78,146,36,36,66,063,28,1*7F"
1731842071,"$GNRMC,171314.00,A,4149.23768,N,08622.17644,W,0.113,,171124,,,D,V*0F"
1731842073,"$GNRMC,171315.00,A,4149.23768,N,08622.17644,W,0.200,,171124,,,D,V*0F"
1731842074,"$GLGSV,3,1,10,65,39,325,35,71,23,124,22,72,71,087,23,73,17,034,36,1*7D"
1731842074,"$GLGSV,3,3,10,82,00,008,,88,00,278,,1*76"
1731842074,"$GNRMC,171316.00,A,4149.23766,N,08622.17638,W,0.438,,171124,,,D,V*04"
1731842074,"$GNGGA,171316.00,4149.23766,N,08622.17638,W,2,12,0.64,219.8,M,-34.0,M,,0000*72"
1731842075,"$GNGSA,A,3,75,74,65,71,72,73,,,,,,,1.10,0.64,0.90,2*0C"
1731842080,"$GNGSA,A,3,75,74,65,72,73,,,,,,,,1.14,0.66,0.93,2*0F"
1731842080,"$GPGSV,3,1,12,02,08,253,30,03,41,306,35,10,07,159,,16,16,185,19,1*62"
